X,Y,OBJECTID,stop_id,stop_code,stop_name,stop_desc,platform_code,platform_name,stop_lat,stop_lon,zone_id,stop_address,stop_url,level_id,location_type,parent_station,wheelchair_boarding,municipality,on_street,at_street,vehicle_type,Sidewalk_Width__ft_,Accessibility_Score,Sidewalk_Condition,Sidewalk_Material,Current_Shelter,Routes,Municipality_1,Neighborhood,created_user,created_date,last_edited_user,last_edited_date
-71.1424830006026,42.3954279998397,644769,70061,70061,Alewife,Alewife - Red Line,,Red Line,42.395428,-71.142483,RapidTransit,,https://www.mbta.com/stops/place-alfcl,level_-2_platform,0,place-alfcl,1,Cambridge,,,1,,,,,,,,,DOT_ADMIN,2020/05/21 10:32:42+00,DOT_ADMIN,2020/05/21 10:32:42+00
-71.1424830006026,42.3954279998397,644770,Alewife-01,,Alewife,Alewife - Red Line - Track 1,1,Red Line - Track 1,42.395428,-71.142483,RapidTransit,,https://www.mbta.com/stops/place-alfcl,level_-2_platform,0,place-alfcl,1,Cambridge,,,1,,,,,,,,,DOT_ADMIN,2020/05/21 10:32:42+00,DOT_ADMIN,2020/05/21 10:32:42+00
-71.1424830006026,42.3954279998397,644771,Alewife-02,,Alewife,Alewife - Red Line - Track 2,2,Red Line - Track 2,42.395428,-71.142483,RapidTransit,,https://www.mbta.com/stops/place-alfcl,level_-2_platform,0,place-alfcl,1,Cambridge,,,1,,,,,,,,,DOT_ADMIN,2020/05/21 10:32:42+00,DOT_ADMIN,2020/05/21 10:32:42+00
-71.1409289995287,42.3958619996706,644772,door-alfcl-alewife,,Alewife - Alewife Path,Alewife - Alewife Path,,,42.395862,-71.140929,,,,level_ground,2,place-alfcl,1,Cambridge,,,,,,,,,,,,DOT_ADMIN,2020/05/21 10:32:42+00,DOT_ADMIN,2020/05/21 10:32:42+00
-71.1416310000447,42.3956720000237,644773,door-alfcl-busway,,"Alewife - Garage, Buses","Alewife - Garage, Buses",,,42.395672,-71.141631,,,,level_ground,2,place-alfcl,1,Cambridge,,,,,,,,,,,,DOT_ADMIN,2020/05/21 10:32:42+00,DOT_ADMIN,2020/05/21 10:32:42+00
-71.1415159998346,42.3948930003353,644774,door-alfcl-cambridgepark,,"Alewife - Cambridgepark Dr, Alewife Brook Pkwy","Alewife - Cambridgepark Dr, Alewife Brook Pkwy",,,42.394893,-71.141516,,,,level_in_street,2,place-alfcl,1,Cambridge,,,,,,,,,,,,DOT_ADMIN,2020/05/21 10:32:42+00,DOT_ADMIN,2020/05/21 10:32:42+00
-71.1395749996596,42.3960600000996,644775,door-alfcl-russell,,Alewife - Russell Field,Alewife - Russell Field,,,42.39606,-71.139575,,,,level_ground,2,place-alfcl,1,Cambridge,,,,,,,,,,,,DOT_ADMIN,2020/05/21 10:32:42+00,DOT_ADMIN,2020/05/21 10:32:42+00
-71.1424689996064,42.3955780004425,644776,door-alfcl-steel,,"Alewife - Steel Place, Alewife Brook Reserve","Alewife - Steel Place, Alewife Brook Reserve",,,42.395578,-71.142469,,,,level_in_street,2,place-alfcl,1,Cambridge,,,,,,,,,,,,DOT_ADMIN,2020/05/21 10:32:42+00,DOT_ADMIN,2020/05/21 10:32:42+00
-71.1378809996054,42.3486489995896,644778,70126,70126,Allston Street,Allston Street - Green Line - Park Street & North,,Park Street & North,42.348649,-71.137881,RapidTransit,,https://www.mbta.com/stops/place-alsgr,level_median,0,place-alsgr,2,Boston,,,0,,,,,,,,,DOT_ADMIN,2020/05/21 10:32:42+00,DOT_ADMIN,2020/05/21 10:32:42+00
-71.1373619995723,42.3485459995765,644779,70127,70127,Allston Street,Allston Street - Green Line - (B) Boston College,,Boston College,42.348546,-71.137362,RapidTransit,,https://www.mbta.com/stops/place-alsgr,level_median,0,place-alsgr,2,Boston,,,0,,,,,,,,,DOT_ADMIN,2020/05/21 10:32:42+00,DOT_ADMIN,2020/05/21 10:32:42+00
-71.0576550004451,42.3301540004541,644782,70083,70083,Andrew,Andrew - Red Line - Ashmont/Braintree,1,Ashmont/Braintree,42.330154,-71.057655,RapidTransit,,https://www.mbta.com/stops/place-andrw,level_-2_platform,0,place-andrw,1,Boston,,,1,,,,,,,,,DOT_ADMIN,2020/05/21 10:32:42+00,DOT_ADMIN,2020/05/21 10:32:42+00
-71.0576550004451,42.3301540004541,644783,70084,70084,Andrew,Andrew - Red Line - Alewife,2,Alewife,42.330154,-71.057655,RapidTransit,,https://www.mbta.com/stops/place-andrw,level_-2_platform,0,place-andrw,1,Boston,,,1,,,,,,,,,DOT_ADMIN,2020/05/21 10:32:42+00,DOT_ADMIN,2020/05/21 10:32:42+00
-71.0576050004817,42.3301640002983,644784,door-andrw-busway,,Andrew - Buses,Andrew - Buses,,,42.330164,-71.057605,,,,level_ground,2,place-andrw,2,Boston,,,,,,,,,,,,DOT_ADMIN,2020/05/21 10:32:42+00,DOT_ADMIN,2020/05/21 10:32:42+00
-71.0573089999177,42.3300170001449,644785,door-andrw-dotave,,"Andrew - Street, Buses","Andrew - Street, Buses",,,42.330017,-71.057309,,,,level_ground,2,place-andrw,2,Boston,,,,,,,,,,,,DOT_ADMIN,2020/05/21 10:32:42+00,DOT_ADMIN,2020/05/21 10:32:42+00
-71.0576840005765,42.3300169995988,644786,door-andrw-elevator,,Andrew - Elevator,Andrew - Elevator,,,42.330017,-71.057684,,,,level_ground,2,place-andrw,1,Boston,,,,,,,,,,,,DOT_ADMIN,2020/05/21 10:32:42+00,DOT_ADMIN,2020/05/21 10:32:42+00
-71.057863000088,42.3300040001021,644787,door-andrw-exitonly,,Andrew - Southampton St,Andrew - Southampton St,,,42.330004,-71.057863,,,,level_ground,2,place-andrw,2,Boston,,,,,,,,,,,,DOT_ADMIN,2020/05/21 10:32:42+00,DOT_ADMIN,2020/05/21 10:32:42+00
-71.0303949995171,42.3742619996415,644789,70047,70047,Airport,Airport - Blue Line - Bowdoin,,Bowdoin,42.374262,-71.030395,RapidTransit,,https://www.mbta.com/stops/place-aport,level_0_platform,0,place-aport,1,Boston,,,1,,,,,,,,,DOT_ADMIN,2020/05/21 10:32:42+00,DOT_ADMIN,2020/05/21 10:32:42+00
-71.0303949995171,42.3742619996415,644790,70048,70048,Airport,Airport - Blue Line - Wonderland,,Wonderland,42.374262,-71.030395,RapidTransit,,https://www.mbta.com/stops/place-aport,level_0_platform,0,place-aport,1,Boston,,,1,,,,,,,,,DOT_ADMIN,2020/05/21 10:32:42+00,DOT_ADMIN,2020/05/21 10:32:42+00
-71.0303059997834,42.3745529995633,644794,door-aport-bremen,,Airport - Bremen St,Airport - Bremen St,,,42.374553,-71.030306,,,,level_ground,2,place-aport,1,Boston,,,,,,,,,,,,DOT_ADMIN,2020/05/21 10:32:42+00,DOT_ADMIN,2020/05/21 10:32:42+00
-71.0300310003565,42.3739840000899,644795,door-aport-buses,,"Airport - Buses, Airport","Airport - Buses, Airport",,,42.373984,-71.030031,,,,level_ground,2,place-aport,1,Boston,,,,,,,,,,,,DOT_ADMIN,2020/05/21 10:32:42+00,DOT_ADMIN,2020/05/21 10:32:42+00
-71.0516520001934,42.3597839997986,644797,70043,70043,Aquarium,Aquarium - Blue Line - Bowdoin,1,Bowdoin,42.359784,-71.051652,RapidTransit,,https://www.mbta.com/stops/place-aqucl,level_-2_platform,0,place-aqucl,1,Boston,,,1,,,,,,,,,DOT_ADMIN,2020/05/21 10:32:42+00,DOT_ADMIN,2020/05/21 10:32:42+00
-71.0516520001934,42.3597839997986,644798,70044,70044,Aquarium,Aquarium - Blue Line - Wonderland,2,Wonderland,42.359784,-71.051652,RapidTransit,,https://www.mbta.com/stops/place-aqucl,level_-2_platform,0,place-aqucl,1,Boston,,,1,,,,,,,,,DOT_ADMIN,2020/05/21 10:32:42+00,DOT_ADMIN,2020/05/21 10:32:42+00
-71.0516309997668,42.3597909996172,644799,door-aqucl-atlantic,,Aquarium - Waterfront and New England Aquarium,Aquarium - Waterfront and New England Aquarium,,,42.359791,-71.051631,,,,level_in_street,2,place-aqucl,2,Boston,,,,,,,,,,,,DOT_ADMIN,2020/05/21 10:32:42+00,DOT_ADMIN,2020/05/21 10:32:42+00
-71.0512429998882,42.3598610000267,644800,door-aqucl-atlanticelev,,Aquarium - Waterfront and New England Aquarium,Aquarium - Waterfront and New England Aquarium,,,42.359861,-71.051243,,,,level_in_street,2,place-aqucl,1,Boston,,,,,,,,,,,,DOT_ADMIN,2020/05/21 10:32:42+00,DOT_ADMIN,2020/05/21 10:32:42+00
-71.0531830005077,42.3595339999526,644801,door-aqucl-mcknorth,,Aquarium - State St (North),Aquarium - State St (North),,,42.359534,-71.053183,,,,level_in_street,2,place-aqucl,2,Boston,,,,,,,,,,,,DOT_ADMIN,2020/05/21 10:32:42+00,DOT_ADMIN,2020/05/21 10:32:42+00
-71.0530389996719,42.3593310000941,644802,door-aqucl-mcksouth,,Aquarium - State St (South),Aquarium - State St (South),,,42.359331,-71.053039,,,,level_in_street,2,place-aqucl,1,Boston,,,,,,,,,,,,DOT_ADMIN,2020/05/21 10:32:42+00,DOT_ADMIN,2020/05/21 10:32:42+00
-71.0708929997098,42.3519019997271,644804,70156,70156,Arlington,Arlington - Green Line - Park Street & North,,Park Street & North,42.351902,-71.070893,RapidTransit,,https://www.mbta.com/stops/place-armnl,level_-2_platform,0,place-armnl,1,Boston,,,0,,,,,,,,,DOT_ADMIN,2020/05/21 10:32:42+00,DOT_ADMIN,2020/05/21 10:32:42+00
-71.0708929997098,42.3519019997271,644805,70157,70157,Arlington,Arlington - Green Line - Copley & West,,Copley & West,42.351902,-71.070893,RapidTransit,,https://www.mbta.com/stops/place-armnl,level_-2_platform,0,place-armnl,1,Boston,,,0,,,,,,,,,DOT_ADMIN,2020/05/21 10:32:42+00,DOT_ADMIN,2020/05/21 10:32:42+00
-71.0705089998222,42.3517379996373,644806,door-armnl-arlte,,Arlington - Arlington St (East),Arlington - Arlington St (East),,,42.351738,-71.070509,,,,level_in_street,2,place-armnl,2,Boston,,,,,,,,,,,,DOT_ADMIN,2020/05/21 10:32:42+00,DOT_ADMIN,2020/05/21 10:32:42+00
-71.0706859998735,42.3516939998196,644807,door-armnl-arltw,,Arlington - Arlington St (West),Arlington - Arlington St (West),,,42.351694,-71.070686,,,,level_in_street,2,place-armnl,2,Boston,,,,,,,,,,,,DOT_ADMIN,2020/05/21 10:32:42+00,DOT_ADMIN,2020/05/21 10:32:42+00
-71.0712800000359,42.3517959997091,644808,door-armnl-elevator,,"Arlington - Elevator, Boylston St","Arlington - Elevator, Boylston St",,,42.351796,-71.07128,,,,level_in_street,2,place-armnl,1,Boston,,,,,,,,,,,,DOT_ADMIN,2020/05/21 10:32:42+00,DOT_ADMIN,2020/05/21 10:32:42+00
-71.070863999901,42.3519999998673,644809,door-armnl-garden,,Arlington - Public Garden,Arlington - Public Garden,,,42.352,-71.070864,,,,level_in_street,2,place-armnl,2,Boston,,,,,,,,,,,,DOT_ADMIN,2020/05/21 10:32:42+00,DOT_ADMIN,2020/05/21 10:32:42+00
-71.0636010005127,42.2842389996243,644812,70093,70093,Ashmont,Ashmont - Red Line - Exit Only,,Exit Only,42.284239,-71.063601,RapidTransit,,https://www.mbta.com/stops/place-asmnl,level_-1_platform,0,place-asmnl,1,Boston,,,1,,,,,,,,,DOT_ADMIN,2020/05/21 10:32:42+00,DOT_ADMIN,2020/05/21 10:32:42+00
-71.0635239997523,42.284257999695,644813,70094,70094,Ashmont,Ashmont - Red Line - Alewife,,Alewife,42.284258,-71.063524,RapidTransit,,https://www.mbta.com/stops/place-asmnl,level_-1_platform,0,place-asmnl,1,Boston,,,1,,,,,,,,,DOT_ADMIN,2020/05/21 10:32:42+00,DOT_ADMIN,2020/05/21 10:32:42+00
-71.0633019998004,42.2840950002575,644814,70261,70261,Ashmont,Ashmont - Mattapan Trolley,,Mattapan Trolley,42.284095,-71.063302,RapidTransit,,https://www.mbta.com/stops/place-asmnl,level_ground,0,place-asmnl,1,Boston,,,0,,,,,,,,,DOT_ADMIN,2020/05/21 10:32:42+00,DOT_ADMIN,2020/05/21 10:32:42+00
-71.063468000553,42.2837649997125,644815,door-asmnl-beale,,Ashmont - Beale St,Ashmont - Beale St,,,42.283765,-71.063468,,,,level_-1.5_in_street,2,place-asmnl,1,Boston,,,,,,,,,,,,DOT_ADMIN,2020/05/21 10:32:42+00,DOT_ADMIN,2020/05/21 10:32:42+00
-71.0635980001392,42.2839279995771,644816,door-asmnl-matpn,,Ashmont - Mattapan Line (Lobby),Ashmont - Mattapan Line (Lobby),,,42.283928,-71.063598,,,,level_ground,2,place-asmnl,1,Boston,,,,,,,,,,,,DOT_ADMIN,2020/05/21 10:32:42+00,DOT_ADMIN,2020/05/21 10:32:42+00
-71.0642229996589,42.285203999894,644817,door-asmnl-peabody,,Ashmont - Peabody Square,Ashmont - Peabody Square,,,42.285204,-71.064223,,,,level_in_street,2,place-asmnl,1,Boston,,,,,,,,,,,,DOT_ADMIN,2020/05/21 10:32:42+00,DOT_ADMIN,2020/05/21 10:32:42+00
-71.0629830004246,42.2835870001205,644818,door-asmnl-radford,,Ashmont - Radford Lane,Ashmont - Radford Lane,,,42.283587,-71.062983,,,,level_-1.5_in_street,2,place-asmnl,1,Boston,,,,,,,,,,,,DOT_ADMIN,2020/05/21 10:32:42+00,DOT_ADMIN,2020/05/21 10:32:42+00
-71.0638650002432,42.2844489998946,644819,door-asmnl-rdexits,,Ashmont - Buses,Ashmont - Buses,,,42.284449,-71.063865,,,,level_ground,2,place-asmnl,2,Boston,,,,,,,,,,,,DOT_ADMIN,2020/05/21 10:32:42+00,DOT_ADMIN,2020/05/21 10:32:42+00
-71.0772570002867,42.3928110003769,644821,70278,70278,Assembly,Assembly - Orange Line - Forest Hills,,Forest Hills,42.392811,-71.077257,RapidTransit,,https://www.mbta.com/stops/place-astao,level_0_platform,0,place-astao,1,Somerville,,,1,,,,,,,,,DOT_ADMIN,2020/05/21 10:32:42+00,DOT_ADMIN,2020/05/21 10:32:42+00
-71.0772570002867,42.3928110003769,644822,70279,70279,Assembly,Assembly - Orange Line - Oak Grove,,Oak Grove,42.392811,-71.077257,RapidTransit,,https://www.mbta.com/stops/place-astao,level_0_platform,0,place-astao,1,Somerville,,,1,,,,,,,,,DOT_ADMIN,2020/05/21 10:32:42+00,DOT_ADMIN,2020/05/21 10:32:42+00
-71.0776610002858,42.3933120003147,644823,door-astao-foley,,Assembly - Foley St,Assembly - Foley St,,,42.393312,-71.077661,,,,level_in_street,2,place-astao,1,Somerville,,,,,,,,,,,,DOT_ADMIN,2020/05/21 10:32:42+00,DOT_ADMIN,2020/05/21 10:32:42+00
-71.0775590005639,42.392164000394,644824,door-astao-revol,,Assembly - Revolution Dr,Assembly - Revolution Dr,,,42.392164,-71.077559,,,,level_in_street,2,place-astao,1,Somerville,,,,,,,,,,,,DOT_ADMIN,2020/05/21 10:32:42+00,DOT_ADMIN,2020/05/21 10:32:42+00
-71.1215300004493,42.3517759999497,644826,70136,70136,Babcock Street,Babcock Street - Green Line - Park Street & North,,Park Street & North,42.351776,-71.12153,RapidTransit,,https://www.mbta.com/stops/place-babck,level_median,0,place-babck,2,Boston,,,0,,,,,,,,,DOT_ADMIN,2020/05/21 10:32:42+00,DOT_ADMIN,2020/05/21 10:32:42+00
-71.1220420005616,42.3519029996218,644827,70137,70137,Babcock Street,Babcock Street - Green Line - (B) Boston College,,Boston College,42.351903,-71.122042,RapidTransit,,https://www.mbta.com/stops/place-babck,level_median,0,place-babck,2,Boston,,,0,,,,,,,,,DOT_ADMIN,2020/05/21 10:32:42+00,DOT_ADMIN,2020/05/21 10:32:42+00
-71.0757269996549,42.3473500003116,644830,70014,70014,Back Bay,Back Bay - Orange Line - Forest Hills,,Forest Hills,42.34735,-71.075727,RapidTransit,,https://www.mbta.com/stops/place-bbsta,level_-1_orange_platform,0,place-bbsta,1,Boston,,,1,,,,,,,,,DOT_ADMIN,2020/05/21 10:32:42+00,DOT_ADMIN,2020/05/21 10:32:42+00
-71.0757269996549,42.3473500003116,644831,70015,70015,Back Bay,Back Bay - Orange Line - Oak Grove,,Oak Grove,42.34735,-71.075727,RapidTransit,,https://www.mbta.com/stops/place-bbsta,level_-1_orange_platform,0,place-bbsta,1,Boston,,,1,,,,,,,,,DOT_ADMIN,2020/05/21 10:32:42+00,DOT_ADMIN,2020/05/21 10:32:42+00
-71.0746990004258,42.3476539998867,644838,door-bbsta-buswayn,,"Back Bay - Clarendon St, Buses (North)","Back Bay - Clarendon St, Buses (North)",,,42.347654,-71.074699,,,,level_in_street,2,place-bbsta,1,Boston,,,,,,,,,,,,DOT_ADMIN,2020/05/21 10:32:42+00,DOT_ADMIN,2020/05/21 10:32:42+00
-71.0746700004657,42.3474449996449,644839,door-bbsta-busways,,"Back Bay - Clarendon St, Buses (South)","Back Bay - Clarendon St, Buses (South)",,,42.347445,-71.07467,,,,level_in_street,2,place-bbsta,1,Boston,,,,,,,,,,,,DOT_ADMIN,2020/05/21 10:32:42+00,DOT_ADMIN,2020/05/21 10:32:42+00
-71.0734099995773,42.3475399997772,644840,door-bbsta-clarcolum,,"Back Bay - Clarendon St, Columbus Ave","Back Bay - Clarendon St, Columbus Ave",,,42.34754,-71.07341,,,,level_in_street,2,place-bbsta,2,Boston,,,,,,,,,,,,DOT_ADMIN,2020/05/21 10:32:42+00,DOT_ADMIN,2020/05/21 10:32:42+00
-71.0729369998973,42.3475519995749,644841,door-bbsta-clarendon1,,Back Bay - Clarendon St (Tracks 1 and 3),Back Bay - Clarendon St (Tracks 1 and 3),,,42.347552,-71.072937,,,,level_in_street,2,place-bbsta,2,Boston,,,,,,,,,,,,DOT_ADMIN,2020/05/21 10:32:42+00,DOT_ADMIN,2020/05/21 10:32:42+00
-71.0730500003064,42.3474710003824,644842,door-bbsta-clarendon2,,Back Bay - Clarendon St (Track 2),Back Bay - Clarendon St (Track 2),,,42.347471,-71.07305,,,,level_in_street,2,place-bbsta,2,Boston,,,,,,,,,,,,DOT_ADMIN,2020/05/21 10:32:42+00,DOT_ADMIN,2020/05/21 10:32:42+00
-71.0759000001053,42.3475839996181,644843,door-bbsta-dartmn,,Back Bay - Dartmouth St (North),Back Bay - Dartmouth St (North),,,42.347584,-71.0759,,,,level_in_street,2,place-bbsta,1,Boston,,,,,,,,,,,,DOT_ADMIN,2020/05/21 10:32:42+00,DOT_ADMIN,2020/05/21 10:32:42+00
-71.0757909999777,42.3473480001158,644844,door-bbsta-dartms,,Back Bay - Dartmouth St (South),Back Bay - Dartmouth St (South),,,42.347348,-71.075791,,,,level_in_street,2,place-bbsta,1,Boston,,,,,,,,,,,,DOT_ADMIN,2020/05/21 10:32:42+00,DOT_ADMIN,2020/05/21 10:32:42+00
-71.0762279997414,42.3475719998164,644845,door-bbsta-dartmw,,Back Bay - Dartmouth St (Tracks 5 and 7),Back Bay - Dartmouth St (Tracks 5 and 7),,,42.347572,-71.076228,,,,level_in_street,2,place-bbsta,2,Boston,,,,,,,,,,,,DOT_ADMIN,2020/05/21 10:32:42+00,DOT_ADMIN,2020/05/21 10:32:42+00
-71.0750539995118,42.3476840001833,644846,door-bbsta-garage,,Back Bay - Garage,Back Bay - Garage,,,42.347684,-71.075054,,,,level_ground,2,place-bbsta,1,Boston,,,,,,,,,,,,DOT_ADMIN,2020/05/21 10:32:42+00,DOT_ADMIN,2020/05/21 10:32:42+00
-71.076565000489,42.3472730002217,644847,door-bbsta-underpass,,Back Bay - Underpass to Copley Place,Back Bay - Underpass to Copley Place,,,42.347273,-71.076565,,,,level_ground,2,place-bbsta,2,Boston,,,,,,,,,,,,DOT_ADMIN,2020/05/21 10:32:42+00,DOT_ADMIN,2020/05/21 10:32:42+00
-71.1110459997135,42.3293690002136,644849,70257,70257,Back of the Hill,Back of the Hill - Green Line - (E) Heath Street,,Heath Street,42.329369,-71.111046,RapidTransit,,https://www.mbta.com/stops/place-bckhl,level_in_street,0,place-bckhl,2,Boston,,,0,,,,,,,,,DOT_ADMIN,2020/05/21 10:32:42+00,DOT_ADMIN,2020/05/21 10:32:42+00
-71.1109310001274,42.3293989995618,644850,70258,70258,Back of the Hill,Back of the Hill - Green Line - Park Street & North,,Park Street & North,42.329399,-71.110931,RapidTransit,,https://www.mbta.com/stops/place-bckhl,level_in_street,0,place-bckhl,2,Boston,,,0,,,,,,,,,DOT_ADMIN,2020/05/21 10:32:42+00,DOT_ADMIN,2020/05/21 10:32:42+00
-71.1408409997595,42.3358090002784,644852,70176,70176,Beaconsfield,Beaconsfield - Green Line - Park Street & North,,Park Street & North,42.335809,-71.140841,RapidTransit,,https://www.mbta.com/stops/place-bcnfd,level_ground,0,place-bcnfd,2,Brookline,,,0,,,,,,,,,DOT_ADMIN,2020/05/21 10:32:42+00,DOT_ADMIN,2020/05/21 10:32:42+00
-71.1408259999197,42.335847999946,644853,70177,70177,Beaconsfield,Beaconsfield - Green Line - (D) Riverside,,Riverside,42.335848,-71.140826,RapidTransit,,https://www.mbta.com/stops/place-bcnfd,level_ground,0,place-bcnfd,2,Brookline,,,0,,,,,,,,,DOT_ADMIN,2020/05/21 10:32:42+00,DOT_ADMIN,2020/05/21 10:32:42+00
-71.1399300000175,42.3357879998666,644854,door-bcnfd-bcnfield,,Beaconsfield - Beaconsfield Rd,Beaconsfield - Beaconsfield Rd,,,42.335788,-71.13993,,,,level_ground,2,place-bcnfd,1,Brookline,,,,,,,,,,,,DOT_ADMIN,2020/05/21 10:32:42+00,DOT_ADMIN,2020/05/21 10:32:42+00
-71.1399700003482,42.3355550001211,644855,door-bcnfd-clark,,Beaconsfield - Clark Rd,Beaconsfield - Clark Rd,,,42.335555,-71.13997,,,,level_ground,2,place-bcnfd,1,Brookline,,,,,,,,,,,,DOT_ADMIN,2020/05/21 10:32:42+00,DOT_ADMIN,2020/05/21 10:32:42+00
-71.1414040005299,42.3360529999944,644856,door-bcnfd-dean,,"Beaconsfield - Dean Rd, Beacon St","Beaconsfield - Dean Rd, Beacon St",,,42.336053,-71.141404,,,,level_1_in_street,2,place-bcnfd,2,Brookline,,,,,,,,,,,,DOT_ADMIN,2020/05/21 10:32:42+00,DOT_ADMIN,2020/05/21 10:32:42+00
-71.1404199994598,42.3358450004417,644857,door-bcnfd-lot,,Beaconsfield - Parking Lot,Beaconsfield - Parking Lot,,,42.335845,-71.14042,,,,level_ground,2,place-bcnfd,2,Brookline,,,,,,,,,,,,DOT_ADMIN,2020/05/21 10:32:42+00,DOT_ADMIN,2020/05/21 10:32:42+00
-71.1351389995583,42.3394709996464,644859,70229,70229,Washington Square,Washington Square - Green Line - (C) Cleveland Circle,,Cleveland Circle,42.339471,-71.135139,RapidTransit,,https://www.mbta.com/stops/place-bcnwa,level_median,0,place-bcnwa,1,Brookline,,,0,,,,,,,,,DOT_ADMIN,2020/05/21 10:32:42+00,DOT_ADMIN,2020/05/21 10:32:42+00
-71.1345869994869,42.3395190002247,644860,70230,70230,Washington Square,Washington Square - Green Line - Park Street & North,,Park Street & North,42.339519,-71.134587,RapidTransit,,https://www.mbta.com/stops/place-bcnwa,level_median,0,place-bcnwa,1,Brookline,,,0,,,,,,,,,DOT_ADMIN,2020/05/21 10:32:42+00,DOT_ADMIN,2020/05/21 10:32:42+00
-71.0998209994622,42.3491649995974,644865,70148,70148,Blandford Street,Blandford Street - Green Line - Park Street & North,,Park Street & North,42.349165,-71.099821,RapidTransit,,https://www.mbta.com/stops/place-bland,level_median,0,place-bland,2,Boston,,,0,,,,,,,,,DOT_ADMIN,2020/05/21 10:32:42+00,DOT_ADMIN,2020/05/21 10:32:42+00
-71.1002130002379,42.3492759996202,644866,70149,70149,Blandford Street,Blandford Street - Green Line - (B) Boston College,,Boston College,42.349276,-71.100213,RapidTransit,,https://www.mbta.com/stops/place-bland,level_median,0,place-bland,2,Boston,,,0,,,,,,,,,DOT_ADMIN,2020/05/21 10:32:42+00,DOT_ADMIN,2020/05/21 10:32:42+00
-70.9923190005082,42.3975419998081,644868,70055,70055,Beachmont,Beachmont - Blue Line - Bowdoin,1,Bowdoin,42.397542,-70.992319,RapidTransit,,https://www.mbta.com/stops/place-bmmnl,level_1_platform,0,place-bmmnl,1,Revere,,,1,,,,,,,,,DOT_ADMIN,2020/05/21 10:32:42+00,DOT_ADMIN,2020/05/21 10:32:42+00
-70.9923190005082,42.3975419998081,644869,70056,70056,Beachmont,Beachmont - Blue Line - Wonderland,2,Wonderland,42.397542,-70.992319,RapidTransit,,https://www.mbta.com/stops/place-bmmnl,level_1_platform,0,place-bmmnl,1,Revere,,,1,,,,,,,,,DOT_ADMIN,2020/05/21 10:32:42+00,DOT_ADMIN,2020/05/21 10:32:42+00
-70.9923579994446,42.397551000061,644870,door-bmmnl-main,,Beachmont - Winthrop Ave,Beachmont - Winthrop Ave,,,42.397551,-70.992358,,,,level_in_street,2,place-bmmnl,1,Revere,,,,,,,,,,,,DOT_ADMIN,2020/05/21 10:32:42+00,DOT_ADMIN,2020/05/21 10:32:42+00
-71.1288689998366,42.3400529995937,644872,70225,70225,Brandon Hall,Brandon Hall - Green Line - (C) Cleveland Circle,,Cleveland Circle,42.340053,-71.128869,RapidTransit,,https://www.mbta.com/stops/place-bndhl,level_median,0,place-bndhl,2,Brookline,,,0,,,,,,,,,DOT_ADMIN,2020/05/21 10:32:42+00,DOT_ADMIN,2020/05/21 10:32:42+00
-71.1286600003068,42.340038000226,644873,70226,70226,Brandon Hall,Brandon Hall - Green Line - Park Street & North,,Park Street & North,42.340038,-71.12866,RapidTransit,,https://www.mbta.com/stops/place-bndhl,level_median,0,place-bndhl,2,Brookline,,,0,,,,,,,,,DOT_ADMIN,2020/05/21 10:32:42+00,DOT_ADMIN,2020/05/21 10:32:42+00
-71.0620370004147,42.3613650000437,644875,70038,70038,Bowdoin,Bowdoin - Blue Line - Wonderland,,Wonderland,42.361365,-71.062037,RapidTransit,,https://www.mbta.com/stops/place-bomnl,level_-1_platform,0,place-bomnl,2,Boston,,,1,,,,,,,,,DOT_ADMIN,2020/05/21 10:32:42+00,DOT_ADMIN,2020/05/21 10:32:42+00
-71.0620370004147,42.3613650000437,644876,70838,70838,Bowdoin,Bowdoin - Blue Line - Exit Only,,Exit Only,42.361365,-71.062037,RapidTransit,,https://www.mbta.com/stops/place-bomnl,level_-1_platform,0,place-bomnl,2,Boston,,,1,,,,,,,,,DOT_ADMIN,2020/05/21 10:32:42+00,DOT_ADMIN,2020/05/21 10:32:42+00
-71.061971000603,42.3613500001468,644877,door-bomnl-main,,Bowdoin - Cambridge St,Bowdoin - Cambridge St,,,42.36135,-71.061971,,,,level_in_street,2,place-bomnl,2,Boston,,,,,,,,,,,,DOT_ADMIN,2020/05/21 10:32:42+00,DOT_ADMIN,2020/05/21 10:32:42+00
-71.0646820003881,42.3525310003698,644882,70158,70158,Boylston,Boylston - Green Line - Park Street & North,,Park Street & North,42.352531,-71.064682,RapidTransit,,https://www.mbta.com/stops/place-boyls,level_-1_platform,0,place-boyls,2,Boston,,,0,,,,,,,,,DOT_ADMIN,2020/05/21 10:32:42+00,DOT_ADMIN,2020/05/21 10:32:42+00
-71.0645450000865,42.3532140001456,644883,70159,70159,Boylston,Boylston - Green Line - Copley & West,,Copley & West,42.353214,-71.064545,RapidTransit,,https://www.mbta.com/stops/place-boyls,level_-1_platform,0,place-boyls,2,Boston,,,0,,,,,,,,,DOT_ADMIN,2020/05/21 10:32:42+00,DOT_ADMIN,2020/05/21 10:32:42+00
-71.0646849996074,42.3525310000196,644884,door-boyls-inbound,,"Boylston - Boston Common, Street","Boylston - Boston Common, Street",,,42.352531,-71.064685,,,,level_in_street,2,place-boyls,2,Boston,,,,,,,,,,,,DOT_ADMIN,2020/05/21 10:32:42+00,DOT_ADMIN,2020/05/21 10:32:42+00
-71.0645460002396,42.3532140003317,644885,door-boyls-outbound,,"Boylston - Boston Common, Street","Boylston - Boston Common, Street",,,42.353214,-71.064546,,,,level_in_street,2,place-boyls,2,Boston,,,,,,,,,,,,DOT_ADMIN,2020/05/21 10:32:42+00,DOT_ADMIN,2020/05/21 10:32:42+00
-71.0569669994852,42.3426220002624,644887,70081,70081,Broadway,Broadway - Red Line - Ashmont/Braintree,,Ashmont/Braintree,42.342622,-71.056967,RapidTransit,,https://www.mbta.com/stops/place-brdwy,level_-2_platform,0,place-brdwy,1,Boston,,,1,,,,,,,,,DOT_ADMIN,2020/05/21 10:32:42+00,DOT_ADMIN,2020/05/21 10:32:42+00
-71.0569669994852,42.3426220002624,644888,70082,70082,Broadway,Broadway - Red Line - Alewife,,Alewife,42.342622,-71.056967,RapidTransit,,https://www.mbta.com/stops/place-brdwy,level_-2_platform,0,place-brdwy,1,Boston,,,1,,,,,,,,,DOT_ADMIN,2020/05/21 10:32:42+00,DOT_ADMIN,2020/05/21 10:32:42+00
-71.0569439994305,42.3425600002156,644889,door-brdwy-main,,Broadway - Broadway,Broadway - Broadway,,,42.34256,-71.056944,,,,level_in_street,2,place-brdwy,1,Boston,,,,,,,,,,,,DOT_ADMIN,2020/05/21 10:32:42+00,DOT_ADMIN,2020/05/21 10:32:42+00
-71.057389000596,42.3429620001438,644890,door-brdwy-traveler,,Broadway - Traveler St,Broadway - Traveler St,,,42.342962,-71.057389,,,,level_in_street,2,place-brdwy,2,Boston,,,,,,,,,,,,DOT_ADMIN,2020/05/21 10:32:42+00,DOT_ADMIN,2020/05/21 10:32:42+00
-71.1250669998552,42.3518910000226,644892,70134,70134,Packards Corner,Packards Corner - Green Line - Park Street & North,,Park Street & North,42.351891,-71.125067,RapidTransit,,https://www.mbta.com/stops/place-brico,level_median,0,place-brico,2,Boston,,,0,,,,,,,,,DOT_ADMIN,2020/05/21 10:32:42+00,DOT_ADMIN,2020/05/21 10:32:42+00
-71.1255099997167,42.3516509996075,644893,70135,70135,Packards Corner,Packards Corner - Green Line - (B) Boston College,,Boston College,42.351651,-71.12551,RapidTransit,,https://www.mbta.com/stops/place-brico,level_median,0,place-brico,2,Boston,,,0,,,,,,,,,DOT_ADMIN,2020/05/21 10:32:42+00,DOT_ADMIN,2020/05/21 10:32:42+00
-71.1270120002272,42.3312379999741,644895,70178,70178,Brookline Hills,Brookline Hills - Green Line - Park Street & North,,Park Street & North,42.331238,-71.127012,RapidTransit,,https://www.mbta.com/stops/place-brkhl,level_ground,0,place-brkhl,1,Brookline,,,0,,,,,,,,,DOT_ADMIN,2020/05/21 10:32:42+00,DOT_ADMIN,2020/05/21 10:32:42+00
-71.1269980000067,42.3313330002487,644896,70179,70179,Brookline Hills,Brookline Hills - Green Line - (D) Riverside,,Riverside,42.331333,-71.126998,RapidTransit,,https://www.mbta.com/stops/place-brkhl,level_ground,0,place-brkhl,1,Brookline,,,0,,,,,,,,,DOT_ADMIN,2020/05/21 10:32:42+00,DOT_ADMIN,2020/05/21 10:32:42+00
-71.1269220001712,42.3315160000965,644897,door-brkhl-bhs,,"Brookline Hills - Tappan St, Brookline High School","Brookline Hills - Tappan St, Brookline High School",,,42.331516,-71.126922,,,,level_in_street,2,place-brkhl,1,Brookline,,,,,,,,,,,,DOT_ADMIN,2020/05/21 10:32:42+00,DOT_ADMIN,2020/05/21 10:32:42+00
-71.1265790004629,42.3314210003014,644898,door-brkhl-cypress,,"Brookline Hills - Tappan St, Cypress St","Brookline Hills - Tappan St, Cypress St",,,42.331421,-71.126579,,,,level_in_street,2,place-brkhl,1,Brookline,,,,,,,,,,,,DOT_ADMIN,2020/05/21 10:32:42+00,DOT_ADMIN,2020/05/21 10:32:42+00
-71.1044869999652,42.3343309996055,644900,70249,70249,Brigham Circle,Brigham Circle - Green Line - (E) Heath Street,,Heath Street,42.334331,-71.104487,RapidTransit,,https://www.mbta.com/stops/place-brmnl,level_median,0,place-brmnl,1,Boston,,,0,,,,,,,,,DOT_ADMIN,2020/05/21 10:32:42+00,DOT_ADMIN,2020/05/21 10:32:42+00
-71.1030169998377,42.3348459998179,644901,70250,70250,Brigham Circle,Brigham Circle - Green Line - Park Street & North,,Park Street & North,42.334846,-71.103017,RapidTransit,,https://www.mbta.com/stops/place-brmnl,level_median,0,place-brmnl,1,Boston,,,0,,,,,,,,,DOT_ADMIN,2020/05/21 10:32:42+00,DOT_ADMIN,2020/05/21 10:32:42+00
-71.0014230004821,42.2083709996125,644904,70105,70105,Braintree,Braintree - Red Line,,Red Line,42.208371,-71.001423,RapidTransit,,https://www.mbta.com/stops/place-brntn,level_1_red_platform,0,place-brntn,1,Braintree,,,1,,,,,,,,,DOT_ADMIN,2020/05/21 10:32:42+00,DOT_ADMIN,2020/05/21 10:32:42+00
-71.0016400002183,42.2074809998407,644906,Braintree-01,,Braintree,Braintree - Red Line - Track 1,1,Red Line - Track 1,42.207481,-71.00164,RapidTransit,,https://www.mbta.com/stops/place-brntn,level_1_red_platform,0,place-brntn,1,Braintree,,,1,,,,,,,,,DOT_ADMIN,2020/05/21 10:32:42+00,DOT_ADMIN,2020/05/21 10:32:42+00
-71.0016400002183,42.2074809998407,644907,Braintree-02,,Braintree,Braintree - Red Line - Track 2,2,Red Line - Track 2,42.207481,-71.00164,RapidTransit,,https://www.mbta.com/stops/place-brntn,level_1_red_platform,0,place-brntn,1,Braintree,,,1,,,,,,,,,DOT_ADMIN,2020/05/21 10:32:42+00,DOT_ADMIN,2020/05/21 10:32:42+00
-71.0013609998456,42.2073519995675,644908,door-brntn-busway,,"Braintree - Garage, Buses, Ivory St","Braintree - Garage, Buses, Ivory St",,,42.207352,-71.001361,,,,level_ground,2,place-brntn,1,Braintree,,,,,,,,,,,,DOT_ADMIN,2020/05/21 10:32:42+00,DOT_ADMIN,2020/05/21 10:32:42+00
-71.00133899991,42.2075279995944,644909,door-brntn-faregates,,"Braintree - Garage, Buses, Union St","Braintree - Garage, Buses, Union St",,,42.207528,-71.001339,,,,level_ground,2,place-brntn,1,Braintree,,,,,,,,,,,,DOT_ADMIN,2020/05/21 10:32:42+00,DOT_ADMIN,2020/05/21 10:32:42+00
-71.1069019997068,42.3500129998955,644911,70144,70144,Boston University Central,Boston University Central - Green Line - Park Street & North,,Park Street & North,42.350013,-71.106902,RapidTransit,,https://www.mbta.com/stops/place-bucen,level_median,0,place-bucen,1,Boston,,,0,,,,,,,,,DOT_ADMIN,2020/05/21 10:32:42+00,DOT_ADMIN,2020/05/21 10:32:42+00
-71.1074549997895,42.350147999573,644912,70145,70145,Boston University Central,Boston University Central - Green Line - (B) Boston College,,Boston College,42.350148,-71.107455,RapidTransit,,https://www.mbta.com/stops/place-bucen,level_median,0,place-bucen,1,Boston,,,0,,,,,,,,,DOT_ADMIN,2020/05/21 10:32:42+00,DOT_ADMIN,2020/05/21 10:32:42+00
-71.1039889998997,42.3496590003948,644914,70146,70146,Boston University East,Boston University East - Green Line - Park Street & North,,Park Street & North,42.349659,-71.103989,RapidTransit,,https://www.mbta.com/stops/place-buest,level_median,0,place-buest,1,Boston,,,0,,,,,,,,,DOT_ADMIN,2020/05/21 10:32:42+00,DOT_ADMIN,2020/05/21 10:32:42+00
-71.1046570001843,42.3498110001041,644915,70147,70147,Boston University East,Boston University East - Green Line - (B) Boston College,,Boston College,42.349811,-71.104657,RapidTransit,,https://www.mbta.com/stops/place-buest,level_median,0,place-buest,1,Boston,,,0,,,,,,,,,DOT_ADMIN,2020/05/21 10:32:42+00,DOT_ADMIN,2020/05/21 10:32:42+00
-71.0625850002735,42.2723429997436,644917,70265,70265,Butler,Butler - Mattapan Trolley - Mattapan,,Mattapan,42.272343,-71.062585,RapidTransit,,https://www.mbta.com/stops/place-butlr,level_ground,0,place-butlr,1,Boston,,,0,,,,,,,,,DOT_ADMIN,2020/05/21 10:32:42+00,DOT_ADMIN,2020/05/21 10:32:42+00
-71.0625000002107,42.2722910001637,644918,70266,70266,Butler,Butler - Mattapan Trolley - Ashmont,,Ashmont,42.272291,-71.0625,RapidTransit,,https://www.mbta.com/stops/place-butlr,level_ground,0,place-butlr,1,Boston,,,0,,,,,,,,,DOT_ADMIN,2020/05/21 10:32:42+00,DOT_ADMIN,2020/05/21 10:32:42+00
-71.0626770005774,42.2721149998728,644919,door-butlr-bearse,,"Butler - Bearse Ave, Butler St","Butler - Bearse Ave, Butler St",,,42.272115,-71.062677,,,,level_in_street,2,place-butlr,1,Boston,,,,,,,,,,,,DOT_ADMIN,2020/05/21 10:32:42+00,DOT_ADMIN,2020/05/21 10:32:42+00
-71.0625790000784,42.2724690000408,644920,door-butlr-branchfield,,"Butler - Branchfield St, Butler St","Butler - Branchfield St, Butler St",,,42.272469,-71.062579,,,,level_ground,2,place-butlr,1,Boston,,,,,,,,,,,,DOT_ADMIN,2020/05/21 10:32:42+00,DOT_ADMIN,2020/05/21 10:32:42+00
-71.1131329995722,42.3507650004353,644922,70142,70142,Boston University West,Boston University West - Green Line - Park Street & North,,Park Street & North,42.350765,-71.113133,RapidTransit,,https://www.mbta.com/stops/place-buwst,level_median,0,place-buwst,2,Boston,,,0,,,,,,,,,DOT_ADMIN,2020/05/21 10:32:42+00,DOT_ADMIN,2020/05/21 10:32:42+00
-71.1136450002855,42.3508940002392,644923,70143,70143,Boston University West,Boston University West - Green Line - (B) Boston College,,Boston College,42.350894,-71.113645,RapidTransit,,https://www.mbta.com/stops/place-buwst,level_median,0,place-buwst,2,Boston,,,0,,,,,,,,,DOT_ADMIN,2020/05/21 10:32:42+00,DOT_ADMIN,2020/05/21 10:32:42+00
-71.1162340004205,42.3328380003375,644925,70180,70180,Brookline Village,Brookline Village - Green Line - Park Street & North,,Park Street & North,42.332838,-71.116234,RapidTransit,,https://www.mbta.com/stops/place-bvmnl,level_ground,0,place-bvmnl,1,Brookline,,,0,,,,,,,,,DOT_ADMIN,2020/05/21 10:32:42+00,DOT_ADMIN,2020/05/21 10:32:42+00
-71.1162630004437,42.3328710001484,644926,70181,70181,Brookline Village,Brookline Village - Green Line - (D) Riverside,,Riverside,42.332871,-71.116263,RapidTransit,,https://www.mbta.com/stops/place-bvmnl,level_ground,0,place-bvmnl,1,Brookline,,,0,,,,,,,,,DOT_ADMIN,2020/05/21 10:32:42+00,DOT_ADMIN,2020/05/21 10:32:42+00
-71.1165419998665,42.332660000367,644927,door-bvmnl-boylston,,"Brookline Village - Buses, Route 9","Brookline Village - Buses, Route 9",,,42.33266,-71.116542,,,,level_in_street,2,place-bvmnl,1,Brookline,,,,,,,,,,,,DOT_ADMIN,2020/05/21 10:32:42+00,DOT_ADMIN,2020/05/21 10:32:42+00
-71.1166100004153,42.3328179998999,644928,door-bvmnl-kent,,"Brookline Village - Station St, Kent St","Brookline Village - Station St, Kent St",,,42.332818,-71.11661,,,,level_in_street,2,place-bvmnl,1,Brookline,,,,,,,,,,,,DOT_ADMIN,2020/05/21 10:32:42+00,DOT_ADMIN,2020/05/21 10:32:42+00
-71.1174399997054,42.3321769997087,644929,door-bvmnl-place,,Brookline Village - 10 Brookline Place West,Brookline Village - 10 Brookline Place West,,,42.332177,-71.11744,,,,level_1_ground,2,place-bvmnl,2,Brookline,,,,,,,,,,,,DOT_ADMIN,2020/05/21 10:32:42+00,DOT_ADMIN,2020/05/21 10:32:42+00
-71.1172140002457,42.3325519999667,644930,door-bvmnl-washington,,"Brookline Village - Station St, Washington St","Brookline Village - Station St, Washington St",,,42.332552,-71.117214,,,,level_in_street,2,place-bvmnl,1,Brookline,,,,,,,,,,,,DOT_ADMIN,2020/05/21 10:32:42+00,DOT_ADMIN,2020/05/21 10:32:42+00
-71.0877509995154,42.2677120002209,644932,70273,70273,Capen Street,Capen Street - Mattapan Trolley - Mattapan,,Mattapan,42.267712,-71.087751,RapidTransit,,https://www.mbta.com/stops/place-capst,level_ground,0,place-capst,1,Milton,,,0,,,,,,,,,DOT_ADMIN,2020/05/21 10:32:42+00,DOT_ADMIN,2020/05/21 10:32:42+00
-71.0874280004901,42.2675619998194,644933,70274,70274,Capen Street,Capen Street - Mattapan Trolley - Ashmont,,Ashmont,42.267562,-71.087428,RapidTransit,,https://www.mbta.com/stops/place-capst,level_ground,0,place-capst,1,Milton,,,0,,,,,,,,,DOT_ADMIN,2020/05/21 10:32:42+00,DOT_ADMIN,2020/05/21 10:32:42+00
-71.08726600004,42.2675290003687,644934,door-capst-ashmont,,Capen Street - Capen St (East),Capen Street - Capen St (East),,,42.267529,-71.087266,,,,level_in_street,2,place-capst,1,Milton,,,,,,,,,,,,DOT_ADMIN,2020/05/21 10:32:42+00,DOT_ADMIN,2020/05/21 10:32:42+00
-71.0872410000337,42.2675950002071,644935,door-capst-mattapan,,Capen Street - Capen St (West),Capen Street - Capen St (West),,,42.267595,-71.087241,,,,level_in_street,2,place-capst,1,Milton,,,,,,,,,,,,DOT_ADMIN,2020/05/21 10:32:42+00,DOT_ADMIN,2020/05/21 10:32:42+00
-71.0695329996263,42.37362200021,644937,70028,70028,Community College,Community College - Orange Line - Forest Hills,,Forest Hills,42.373622,-71.069533,RapidTransit,,https://www.mbta.com/stops/place-ccmnl,level_-1_platform,0,place-ccmnl,1,Boston,,,1,,,,,,,,,DOT_ADMIN,2020/05/21 10:32:42+00,DOT_ADMIN,2020/05/21 10:32:42+00
-71.0695329996263,42.37362200021,644938,70029,70029,Community College,Community College - Orange Line - Oak Grove,,Oak Grove,42.373622,-71.069533,RapidTransit,,https://www.mbta.com/stops/place-ccmnl,level_-1_platform,0,place-ccmnl,1,Boston,,,1,,,,,,,,,DOT_ADMIN,2020/05/21 10:32:42+00,DOT_ADMIN,2020/05/21 10:32:42+00
-71.0696000004033,42.3737190002669,644939,door-ccmnl-main,,"Community College - Community College, Rutherford Ave","Community College - Community College, Rutherford Ave",,,42.373719,-71.0696,,,,level_in_street,2,place-ccmnl,1,Boston,,,,,,,,,,,,DOT_ADMIN,2020/05/21 10:32:42+00,DOT_ADMIN,2020/05/21 10:32:42+00
-71.0604340000365,42.2796800001462,644941,70263,70263,Cedar Grove,Cedar Grove - Mattapan Trolley - Mattapan,,Mattapan,42.27968,-71.060434,RapidTransit,,https://www.mbta.com/stops/place-cedgr,level_ground,0,place-cedgr,1,Boston,,,0,,,,,,,,,DOT_ADMIN,2020/05/21 10:32:42+00,DOT_ADMIN,2020/05/21 10:32:42+00
-71.0603819993972,42.2796920002732,644942,70264,70264,Cedar Grove,Cedar Grove - Mattapan Trolley - Ashmont,,Ashmont,42.279692,-71.060382,RapidTransit,,https://www.mbta.com/stops/place-cedgr,level_ground,0,place-cedgr,1,Boston,,,0,,,,,,,,,DOT_ADMIN,2020/05/21 10:32:42+00,DOT_ADMIN,2020/05/21 10:32:42+00
-71.0603599996565,42.2797099996091,644943,door-cedgr-fellsway,,Cedar Grove - Fellsway St,Cedar Grove - Fellsway St,,,42.27971,-71.06036,,,,level_in_street,2,place-cedgr,1,Boston,,,,,,,,,,,,DOT_ADMIN,2020/05/21 10:32:42+00,DOT_ADMIN,2020/05/21 10:32:42+00
-71.0611220002006,42.2799690002176,644944,door-cedgr-hillsdale,,Cedar Grove - Hillsdale St,Cedar Grove - Hillsdale St,,,42.279969,-71.061122,,,,level_in_street,2,place-cedgr,1,Boston,,,,,,,,,,,,DOT_ADMIN,2020/05/21 10:32:42+00,DOT_ADMIN,2020/05/21 10:32:42+00
-71.0733370004989,42.270027000179,644946,70269,70269,Central Avenue,Central Avenue - Mattapan Trolley - Mattapan,,Mattapan,42.270027,-71.073337,RapidTransit,,https://www.mbta.com/stops/place-cenav,level_ground,0,place-cenav,1,Milton,,,0,,,,,,,,,DOT_ADMIN,2020/05/21 10:32:42+00,DOT_ADMIN,2020/05/21 10:32:42+00
-71.073307999839,42.269970000253,644947,70270,70270,Central Avenue,Central Avenue - Mattapan Trolley - Ashmont,,Ashmont,42.26997,-71.073308,RapidTransit,,https://www.mbta.com/stops/place-cenav,level_ground,0,place-cenav,1,Milton,,,0,,,,,,,,,DOT_ADMIN,2020/05/21 10:32:42+00,DOT_ADMIN,2020/05/21 10:32:42+00
-71.0732989997551,42.2699909997784,644948,door-cenav-ashmont,,Central Avenue - Central Ave (South),Central Avenue - Central Ave (South),,,42.269991,-71.073299,,,,level_in_street,2,place-cenav,1,Milton,,,,,,,,,,,,DOT_ADMIN,2020/05/21 10:32:42+00,DOT_ADMIN,2020/05/21 10:32:42+00
-71.0733269995363,42.2700690001427,644949,door-cenav-mattapan,,"Central Avenue - Central Ave (North), Neponset Trail","Central Avenue - Central Ave (North), Neponset Trail",,,42.270069,-71.073327,,,,level_in_street,2,place-cenav,1,Milton,,,,,,,,,,,,DOT_ADMIN,2020/05/21 10:32:42+00,DOT_ADMIN,2020/05/21 10:32:42+00
-71.1652989998761,42.3266330001982,644954,70172,70172,Chestnut Hill,Chestnut Hill - Green Line - Park Street & North,,Park Street & North,42.326633,-71.165299,RapidTransit,,https://www.mbta.com/stops/place-chhil,level_ground,0,place-chhil,2,Newton,,,0,,,,,,,,,DOT_ADMIN,2020/05/21 10:32:42+00,DOT_ADMIN,2020/05/21 10:32:42+00
-71.1653159994838,42.3266540003888,644955,70173,70173,Chestnut Hill,Chestnut Hill - Green Line - (D) Riverside,,Riverside,42.326654,-71.165316,RapidTransit,,https://www.mbta.com/stops/place-chhil,level_ground,0,place-chhil,2,Newton,,,0,,,,,,,,,DOT_ADMIN,2020/05/21 10:32:42+00,DOT_ADMIN,2020/05/21 10:32:42+00
-71.165472999609,42.3268080003854,644956,door-chhil-bc,,"Chestnut Hill - Shopping Center, Boston College","Chestnut Hill - Shopping Center, Boston College",,,42.326808,-71.165473,,,,level_1_in_street,2,place-chhil,2,Newton,,,,,,,,,,,,DOT_ADMIN,2020/05/21 10:32:42+00,DOT_ADMIN,2020/05/21 10:32:42+00
-71.1641749994047,42.3267359995534,644957,door-chhil-museum,,"Chestnut Hill - Brimmer and May, Longyear Museum","Chestnut Hill - Brimmer and May, Longyear Museum",,,42.326736,-71.164175,,,,level_ground,2,place-chhil,1,Newton,,,,,,,,,,,,DOT_ADMIN,2020/05/21 10:32:42+00,DOT_ADMIN,2020/05/21 10:32:42+00
-71.1643470001821,42.3269089996623,644958,door-chhil-parke,,Chestnut Hill - Parking Lot Access (East),Chestnut Hill - Parking Lot Access (East),,,42.326909,-71.164347,,,,level_ground,2,place-chhil,1,Newton,,,,,,,,,,,,DOT_ADMIN,2020/05/21 10:32:42+00,DOT_ADMIN,2020/05/21 10:32:42+00
-71.1648400002966,42.326831000022,644959,door-chhil-parkw,,Chestnut Hill - Parking Lot Access (West),Chestnut Hill - Parking Lot Access (West),,,42.326831,-71.16484,,,,level_ground,2,place-chhil,2,Newton,,,,,,,,,,,,DOT_ADMIN,2020/05/21 10:32:42+00,DOT_ADMIN,2020/05/21 10:32:42+00
-71.1525260002306,42.3387299998354,644961,70112,70112,Chestnut Hill Avenue,Chestnut Hill Avenue - Green Line - Park Street & North,,Park Street & North,42.33873,-71.152526,RapidTransit,,https://www.mbta.com/stops/place-chill,level_median,0,place-chill,2,Boston,,,0,,,,,,,,,DOT_ADMIN,2020/05/21 10:32:42+00,DOT_ADMIN,2020/05/21 10:32:42+00
-71.1530249996051,42.3382900000907,644962,70113,70113,Chestnut Hill Avenue,Chestnut Hill Avenue - Green Line - (B) Boston College,,Boston College,42.33829,-71.153025,RapidTransit,,https://www.mbta.com/stops/place-chill,level_median,0,place-chill,2,Boston,,,0,,,,,,,,,DOT_ADMIN,2020/05/21 10:32:42+00,DOT_ADMIN,2020/05/21 10:32:42+00
-71.0706279995924,42.3611660002975,644964,70073,70073,Charles/MGH,Charles/MGH - Red Line - Ashmont/Braintree,,Ashmont/Braintree,42.361166,-71.070628,RapidTransit,,https://www.mbta.com/stops/place-chmnl,level_1_platform,0,place-chmnl,1,Boston,,,1,,,,,,,,,DOT_ADMIN,2020/05/21 10:32:42+00,DOT_ADMIN,2020/05/21 10:32:42+00
-71.0706279995924,42.3611660002975,644965,70074,70074,Charles/MGH,Charles/MGH - Red Line - Alewife,,Alewife,42.361166,-71.070628,RapidTransit,,https://www.mbta.com/stops/place-chmnl,level_1_platform,0,place-chmnl,1,Boston,,,1,,,,,,,,,DOT_ADMIN,2020/05/21 10:32:42+00,DOT_ADMIN,2020/05/21 10:32:42+00
-71.0705700003885,42.3611169997613,644966,door-chmnl-main,,"Charles/MGH - Beacon Hill, Esplanade, Hospitals","Charles/MGH - Beacon Hill, Esplanade, Hospitals",,,42.361117,-71.07057,,,,level_in_street,2,place-chmnl,1,Boston,,,,,,,,,,,,DOT_ADMIN,2020/05/21 10:32:42+00,DOT_ADMIN,2020/05/21 10:32:42+00
-71.0627519998449,42.3525470001562,644968,70018,70018,Chinatown,Chinatown - Orange Line - Forest Hills,,Forest Hills,42.352547,-71.062752,RapidTransit,,https://www.mbta.com/stops/place-chncl,level_-1_platform,0,place-chncl,1,Boston,,,1,,,,,,,,,DOT_ADMIN,2020/05/21 10:32:42+00,DOT_ADMIN,2020/05/21 10:32:42+00
-71.0627519998449,42.3525470001562,644969,70019,70019,Chinatown,Chinatown - Orange Line - Oak Grove,,Oak Grove,42.352547,-71.062752,RapidTransit,,https://www.mbta.com/stops/place-chncl,level_-1_platform,0,place-chncl,1,Boston,,,1,,,,,,,,,DOT_ADMIN,2020/05/21 10:32:42+00,DOT_ADMIN,2020/05/21 10:32:42+00
-71.0630869994141,42.3524050001133,644970,door-chncl-fhelevator,,"Chinatown - Washington St, Essex St","Chinatown - Washington St, Essex St",,,42.352405,-71.063087,,,,level_in_street,2,place-chncl,1,Boston,,,,,,,,,,,,DOT_ADMIN,2020/05/21 10:32:42+00,DOT_ADMIN,2020/05/21 10:32:42+00
-71.0626779995672,42.352457000185,644971,door-chncl-foresthills,,"Chinatown - Washington St, Essex St","Chinatown - Washington St, Essex St",,,42.352457,-71.062678,,,,level_in_street,2,place-chncl,2,Boston,,,,,,,,,,,,DOT_ADMIN,2020/05/21 10:32:42+00,DOT_ADMIN,2020/05/21 10:32:42+00
-71.0624429996294,42.3526279998558,644972,door-chncl-ogelevator,,Chinatown - Elevator (Oak Grove),Chinatown - Elevator (Oak Grove),,,42.352628,-71.062443,,,,level_in_street,2,place-chncl,1,Boston,,,,,,,,,,,,DOT_ADMIN,2020/05/21 10:32:42+00,DOT_ADMIN,2020/05/21 10:32:42+00
-71.0625189998356,42.352252000358,644973,door-chncl-ogessex,,"Chinatown - Washington St, Essex St","Chinatown - Washington St, Essex St",,,42.352252,-71.062519,,,,level_in_street,2,place-chncl,2,Boston,,,,,,,,,,,,DOT_ADMIN,2020/05/21 10:32:42+00,DOT_ADMIN,2020/05/21 10:32:42+00
-71.1506329998039,42.3408080004427,644975,70114,70114,Chiswick Road,Chiswick Road - Green Line - Park Street & North,,Park Street & North,42.340808,-71.150633,RapidTransit,,https://www.mbta.com/stops/place-chswk,level_median,0,place-chswk,2,Boston,,,0,,,,,,,,,DOT_ADMIN,2020/05/21 10:32:42+00,DOT_ADMIN,2020/05/21 10:32:42+00
-71.1511399999658,42.3405400003622,644976,70115,70115,Chiswick Road,Chiswick Road - Green Line - (B) Boston College,,Boston College,42.34054,-71.15114,RapidTransit,,https://www.mbta.com/stops/place-chswk,level_median,0,place-chswk,2,Boston,,,0,,,,,,,,,DOT_ADMIN,2020/05/21 10:32:42+00,DOT_ADMIN,2020/05/21 10:32:42+00
-71.1492009996642,42.3362160002844,644978,70237,70237,Cleveland Circle,Cleveland Circle - Green Line - Exit Only,,Exit Only,42.336216,-71.149201,RapidTransit,,https://www.mbta.com/stops/place-clmnl,level_median,0,place-clmnl,1,Boston,,,0,,,,,,,,,DOT_ADMIN,2020/05/21 10:32:42+00,DOT_ADMIN,2020/05/21 10:32:42+00
-71.1487739998689,42.3362520001197,644979,70238,70238,Cleveland Circle,Cleveland Circle - Green Line - Park Street & North,,Park Street & North,42.336252,-71.148774,RapidTransit,,https://www.mbta.com/stops/place-clmnl,level_median,0,place-clmnl,1,Boston,,,0,,,,,,,,,DOT_ADMIN,2020/05/21 10:32:42+00,DOT_ADMIN,2020/05/21 10:32:42+00
-71.1036209996575,42.3653040001412,644981,70069,70069,Central,Central - Red Line - Ashmont/Braintree,,Ashmont/Braintree,42.365304,-71.103621,RapidTransit,,https://www.mbta.com/stops/place-cntsq,level_-1_platform,0,place-cntsq,1,Cambridge,,,1,,,,,,,,,DOT_ADMIN,2020/05/21 10:32:42+00,DOT_ADMIN,2020/05/21 10:32:42+00
-71.1035539994824,42.365378999914,644982,70070,70070,Central,Central - Red Line - Alewife,,Alewife,42.365379,-71.103554,RapidTransit,,https://www.mbta.com/stops/place-cntsq,level_-1_platform,0,place-cntsq,1,Cambridge,,,1,,,,,,,,,DOT_ADMIN,2020/05/21 10:32:42+00,DOT_ADMIN,2020/05/21 10:32:42+00
-71.1028109995201,42.3649910002243,644983,door-cntsq-essex,,Central - Essex St,Central - Essex St,,,42.364991,-71.102811,,,,level_in_street,2,place-cntsq,2,Cambridge,,,,,,,,,,,,DOT_ADMIN,2020/05/21 10:32:42+00,DOT_ADMIN,2020/05/21 10:32:42+00
-71.1035570001929,42.3651900003857,644984,door-cntsq-ibmass,,Central - Mass Ave,Central - Mass Ave,,,42.36519,-71.103557,,,,level_in_street,2,place-cntsq,1,Cambridge,,,,,,,,,,,,DOT_ADMIN,2020/05/21 10:32:42+00,DOT_ADMIN,2020/05/21 10:32:42+00
-71.1037489999561,42.3655409997085,644985,door-cntsq-obmass,,Central - Mass Ave,Central - Mass Ave,,,42.365541,-71.103749,,,,level_in_street,2,place-cntsq,1,Cambridge,,,,,,,,,,,,DOT_ADMIN,2020/05/21 10:32:42+00,DOT_ADMIN,2020/05/21 10:32:42+00
-71.102989000513,42.3648309999357,644986,door-cntsq-pearl,,Central - Pearl St,Central - Pearl St,,,42.364831,-71.102989,,,,level_in_street,2,place-cntsq,2,Cambridge,,,,,,,,,,,,DOT_ADMIN,2020/05/21 10:32:42+00,DOT_ADMIN,2020/05/21 10:32:42+00
-71.1041310004611,42.3657780003228,644987,door-cntsq-prospect,,Central - Prospect St,Central - Prospect St,,,42.365778,-71.104131,,,,level_in_street,2,place-cntsq,2,Cambridge,,,,,,,,,,,,DOT_ADMIN,2020/05/21 10:32:42+00,DOT_ADMIN,2020/05/21 10:32:42+00
-71.1043040002778,42.3656349998434,644988,door-cntsq-western,,Central - Western Ave,Central - Western Ave,,,42.365635,-71.104304,,,,level_in_street,2,place-cntsq,2,Cambridge,,,,,,,,,,,,DOT_ADMIN,2020/05/21 10:32:42+00,DOT_ADMIN,2020/05/21 10:32:42+00
-71.0780489999342,42.3498710003391,644990,70154,70154,Copley,Copley - Green Line - Park Street & North,,Park Street & North,42.349871,-71.078049,RapidTransit,,https://www.mbta.com/stops/place-coecl,level_-1_platform,0,place-coecl,1,Boston,,,0,,,,,,,,,DOT_ADMIN,2020/05/21 10:32:42+00,DOT_ADMIN,2020/05/21 10:32:42+00
-71.0773759996246,42.3501259995903,644991,70155,70155,Copley,Copley - Green Line - Kenmore & West/(E) Heath Street,,Kenmore & West/Heath Street,42.350126,-71.077376,RapidTransit,,https://www.mbta.com/stops/place-coecl,level_-1_platform,0,place-coecl,1,Boston,,,0,,,,,,,,,DOT_ADMIN,2020/05/21 10:32:42+00,DOT_ADMIN,2020/05/21 10:32:42+00
-71.0780259996195,42.3497989997553,644992,door-coecl-bpl,,Copley - Boylston St,Copley - Boylston St,,,42.349799,-71.078026,,,,level_in_street,2,place-coecl,2,Boston,,,,,,,,,,,,DOT_ADMIN,2020/05/21 10:32:42+00,DOT_ADMIN,2020/05/21 10:32:42+00
-71.077550999649,42.3501939997357,644993,door-coecl-church,,"Copley - Dartmouth St, Old South Church","Copley - Dartmouth St, Old South Church",,,42.350194,-71.077551,,,,level_in_street,2,place-coecl,1,Boston,,,,,,,,,,,,DOT_ADMIN,2020/05/21 10:32:42+00,DOT_ADMIN,2020/05/21 10:32:42+00
-71.0773819994658,42.3503120002438,644994,door-coecl-east,,Copley - Dartmouth St (East),Copley - Dartmouth St (East),,,42.350312,-71.077382,,,,level_in_street,2,place-coecl,2,Boston,,,,,,,,,,,,DOT_ADMIN,2020/05/21 10:32:42+00,DOT_ADMIN,2020/05/21 10:32:42+00
-71.1209149994206,42.3422739999187,644999,70219,70219,Coolidge Corner,Coolidge Corner - Green Line - (C) Cleveland Circle,,Cleveland Circle,42.342274,-71.120915,RapidTransit,,https://www.mbta.com/stops/place-cool,level_median,0,place-cool,1,Brookline,,,0,,,,,,,,,DOT_ADMIN,2020/05/21 10:32:42+00,DOT_ADMIN,2020/05/21 10:32:42+00
-71.1216849995818,42.3420279999896,645000,70220,70220,Coolidge Corner,Coolidge Corner - Green Line - Park Street & North,,Park Street & North,42.342028,-71.121685,RapidTransit,,https://www.mbta.com/stops/place-cool,level_median,0,place-cool,1,Brookline,,,0,,,,,,,,,DOT_ADMIN,2020/05/21 10:32:42+00,DOT_ADMIN,2020/05/21 10:32:42+00
-71.047045999923,42.3526109997791,645004,door-crtst-north,,"Courthouse - Fan Pier Blvd, Seaport Blvd","Courthouse - Fan Pier Blvd, Seaport Blvd",,,42.352611,-71.047046,,,,level_in_street,2,place-crtst,1,Boston,,,,,,,,,,,,DOT_ADMIN,2020/05/21 10:32:42+00,DOT_ADMIN,2020/05/21 10:32:42+00
-71.0469010003065,42.3522470002166,645005,door-crtst-south,,"Courthouse - Thomson Pl, Seaport Blvd","Courthouse - Thomson Pl, Seaport Blvd",,,42.352247,-71.046901,,,,level_in_street,2,place-crtst,1,Boston,,,,,,,,,,,,DOT_ADMIN,2020/05/21 10:32:42+00,DOT_ADMIN,2020/05/21 10:32:42+00
-71.1218150005661,42.3967400002384,645008,70063,70063,Davis,Davis - Red Line - Ashmont/Braintree,,Ashmont/Braintree,42.39674,-71.121815,RapidTransit,,https://www.mbta.com/stops/place-davis,level_-2_platform,0,place-davis,1,Somerville,,,1,,,,,,,,,DOT_ADMIN,2020/05/21 10:32:42+00,DOT_ADMIN,2020/05/21 10:32:42+00
-71.1218150005661,42.3967400002384,645009,70064,70064,Davis,Davis - Red Line - Alewife,,Alewife,42.39674,-71.121815,RapidTransit,,https://www.mbta.com/stops/place-davis,level_-2_platform,0,place-davis,1,Somerville,,,1,,,,,,,,,DOT_ADMIN,2020/05/21 10:32:42+00,DOT_ADMIN,2020/05/21 10:32:42+00
-71.1219889998979,42.3967419997748,645010,door-davis-busway,,"Davis - College Ave, Tufts University, Buses","Davis - College Ave, Tufts University, Buses",,,42.396742,-71.121989,,,,level_in_street,2,place-davis,1,Somerville,,,,,,,,,,,,DOT_ADMIN,2020/05/21 10:32:42+00,DOT_ADMIN,2020/05/21 10:32:42+00
-71.1231910001872,42.3969920000035,645011,door-davis-holland,,"Davis - Holland St, Buses","Davis - Holland St, Buses",,,42.396992,-71.123191,,,,level_in_street,2,place-davis,2,Somerville,,,,,,,,,,,,DOT_ADMIN,2020/05/21 10:32:42+00,DOT_ADMIN,2020/05/21 10:32:42+00
-71.1417529998333,42.3378070004139,645013,70233,70233,Dean Road,Dean Road - Green Line - (C) Cleveland Circle,,Cleveland Circle,42.337807,-71.141753,RapidTransit,,https://www.mbta.com/stops/place-denrd,level_median,0,place-denrd,2,Brookline,,,0,,,,,,,,,DOT_ADMIN,2020/05/21 10:32:42+00,DOT_ADMIN,2020/05/21 10:32:42+00
-71.1423089998236,42.3376280000197,645014,70234,70234,Dean Road,Dean Road - Green Line - Park Street & North,,Park Street & North,42.337628,-71.142309,RapidTransit,,https://www.mbta.com/stops/place-denrd,level_median,0,place-denrd,2,Brookline,,,0,,,,,,,,,DOT_ADMIN,2020/05/21 10:32:42+00,DOT_ADMIN,2020/05/21 10:32:42+00
-71.0602250005805,42.3555179998205,645019,70020,70020,Downtown Crossing,Downtown Crossing - Orange Line - Forest Hills,,Forest Hills,42.355518,-71.060225,RapidTransit,,https://www.mbta.com/stops/place-dwnxg,level_-1_orange_platform,0,place-dwnxg,1,Boston,,,1,,,,,,,,,DOT_ADMIN,2020/05/21 10:32:42+00,DOT_ADMIN,2020/05/21 10:32:42+00
-71.0602250005805,42.3555179998205,645020,70021,70021,Downtown Crossing,Downtown Crossing - Orange Line - Oak Grove,,Oak Grove,42.355518,-71.060225,RapidTransit,,https://www.mbta.com/stops/place-dwnxg,level_-1_orange_platform,0,place-dwnxg,1,Boston,,,1,,,,,,,,,DOT_ADMIN,2020/05/21 10:32:42+00,DOT_ADMIN,2020/05/21 10:32:42+00
-71.0602250005805,42.3555179998205,645021,70077,70077,Downtown Crossing,Downtown Crossing - Red Line - Ashmont/Braintree,,Ashmont/Braintree,42.355518,-71.060225,RapidTransit,,https://www.mbta.com/stops/place-dwnxg,level_-2_red_platform,0,place-dwnxg,1,Boston,,,1,,,,,,,,,DOT_ADMIN,2020/05/21 10:32:42+00,DOT_ADMIN,2020/05/21 10:32:42+00
-71.0602250005805,42.3555179998205,645022,70078,70078,Downtown Crossing,Downtown Crossing - Red Line - Alewife,,Alewife,42.355518,-71.060225,RapidTransit,,https://www.mbta.com/stops/place-dwnxg,level_-2_red_platform,0,place-dwnxg,1,Boston,,,1,,,,,,,,,DOT_ADMIN,2020/05/21 10:32:42+00,DOT_ADMIN,2020/05/21 10:32:42+00
-71.0594800005074,42.3548429998931,645023,door-dwnxg-101arch,,"Downtown Crossing - 101 Arch St, Summer St","Downtown Crossing - 101 Arch St, Summer St",,,42.354843,-71.05948,,,,level_-1_concourse,2,place-dwnxg,1,Boston,,,,,,,,,,,,DOT_ADMIN,2020/05/21 10:32:42+00,DOT_ADMIN,2020/05/21 10:32:42+00
-71.0595879994739,42.3543600002203,645024,door-dwnxg-chauncy,,Downtown Crossing - Chauncy St,Downtown Crossing - Chauncy St,,,42.35436,-71.059588,,,,level_in_street,2,place-dwnxg,2,Boston,,,,,,,,,,,,DOT_ADMIN,2020/05/21 10:32:42+00,DOT_ADMIN,2020/05/21 10:32:42+00
-71.0593259996236,42.3560639999006,645025,door-dwnxg-franklin,,Downtown Crossing - Franklin St,Downtown Crossing - Franklin St,,,42.356064,-71.059326,,,,level_in_street,2,place-dwnxg,1,Boston,,,,,,,,,,,,DOT_ADMIN,2020/05/21 10:32:42+00,DOT_ADMIN,2020/05/21 10:32:42+00
-71.0593659994829,42.3552289997346,645026,door-dwnxg-hawley,,Downtown Crossing - Hawley St (Escalator),Downtown Crossing - Hawley St (Escalator),,,42.355229,-71.059366,,,,level_in_street,2,place-dwnxg,2,Boston,,,,,,,,,,,,DOT_ADMIN,2020/05/21 10:32:42+00,DOT_ADMIN,2020/05/21 10:32:42+00
-71.0605209995975,42.355252999861,645027,door-dwnxg-macys,,Downtown Crossing - Macy's,Downtown Crossing - Macy's,,,42.355253,-71.060521,,,,level_-1_concourse,2,place-dwnxg,1,Boston,,,,,,,,,,,,DOT_ADMIN,2020/05/21 10:32:42+00,DOT_ADMIN,2020/05/21 10:32:42+00
-71.0600749994995,42.3552920003582,645028,door-dwnxg-rochebros,,Downtown Crossing - Roche Bros,Downtown Crossing - Roche Bros,,,42.355292,-71.060075,,,,level_-1_concourse,2,place-dwnxg,1,Boston,,,,,,,,,,,,DOT_ADMIN,2020/05/21 10:32:42+00,DOT_ADMIN,2020/05/21 10:32:42+00
-71.0603269997611,42.3555190002284,645029,door-dwnxg-summer,,"Downtown Crossing - Washington St, Summer St","Downtown Crossing - Washington St, Summer St",,,42.355519,-71.060327,,,,level_in_street,2,place-dwnxg,2,Boston,,,,,,,,,,,,DOT_ADMIN,2020/05/21 10:32:42+00,DOT_ADMIN,2020/05/21 10:32:42+00
-71.0601919995844,42.3553689996454,645030,door-dwnxg-summereast,,"Downtown Crossing - Summer St, Washington St","Downtown Crossing - Summer St, Washington St",,,42.355369,-71.060192,,,,level_in_street,2,place-dwnxg,2,Boston,,,,,,,,,,,,DOT_ADMIN,2020/05/21 10:32:42+00,DOT_ADMIN,2020/05/21 10:32:42+00
-71.0615470004919,42.3548769995656,645031,door-dwnxg-temple,,"Downtown Crossing - Temple Place, Lafaytette Place","Downtown Crossing - Temple Place, Lafaytette Place",,,42.354877,-71.061547,,,,level_in_street,2,place-dwnxg,2,Boston,,,,,,,,,,,,DOT_ADMIN,2020/05/21 10:32:42+00,DOT_ADMIN,2020/05/21 10:32:42+00
-71.0607199997144,42.3553620004003,645032,door-dwnxg-winter,,"Downtown Crossing - Washington St, Winter St","Downtown Crossing - Washington St, Winter St",,,42.355362,-71.06072,,,,level_in_street,2,place-dwnxg,1,Boston,,,,,,,,,,,,DOT_ADMIN,2020/05/21 10:32:42+00,DOT_ADMIN,2020/05/21 10:32:42+00
-71.2167760003836,42.3189569999688,645034,70166,70166,Eliot,Eliot - Green Line - Park Street & North,,Park Street & North,42.318957,-71.216776,RapidTransit,,https://www.mbta.com/stops/place-eliot,level_ground,0,place-eliot,2,Newton,,,0,,,,,,,,,DOT_ADMIN,2020/05/21 10:32:42+00,DOT_ADMIN,2020/05/21 10:32:42+00
-71.2167110003451,42.3190239997145,645035,70167,70167,Eliot,Eliot - Green Line - (D) Riverside,,Riverside,42.319024,-71.216711,RapidTransit,,https://www.mbta.com/stops/place-eliot,level_ground,0,place-eliot,2,Newton,,,0,,,,,,,,,DOT_ADMIN,2020/05/21 10:32:42+00,DOT_ADMIN,2020/05/21 10:32:42+00
-71.2154140002646,42.3183009998966,645036,door-eliot-boyle,,"Eliot - Route 9, Boylston St (Eastbound)","Eliot - Route 9, Boylston St (Eastbound)",,,42.318301,-71.215414,,,,level_boylston_st,2,place-eliot,1,Newton,,,,,,,,,,,,DOT_ADMIN,2020/05/21 10:32:42+00,DOT_ADMIN,2020/05/21 10:32:42+00
-71.2154299995429,42.3185550000572,645037,door-eliot-boylwr,,"Eliot - Route 9, Boylston St (Westbound ramp)","Eliot - Route 9, Boylston St (Westbound ramp)",,,42.318555,-71.21543,,,,level_boylston_st,2,place-eliot,1,Newton,,,,,,,,,,,,DOT_ADMIN,2020/05/21 10:32:42+00,DOT_ADMIN,2020/05/21 10:32:42+00
-71.2158310001123,42.3184880003978,645038,door-eliot-boylws,,"Eliot - Route 9, Boylston St (Westbound stairs)","Eliot - Route 9, Boylston St (Westbound stairs)",,,42.318488,-71.215831,,,,level_boylston_st,2,place-eliot,2,Newton,,,,,,,,,,,,DOT_ADMIN,2020/05/21 10:32:42+00,DOT_ADMIN,2020/05/21 10:32:42+00
-71.2168779997387,42.3192720003417,645039,door-eliot-lincoln,,"Eliot - Lincoln St, Parking","Eliot - Lincoln St, Parking",,,42.319272,-71.216878,,,,level_in_street,2,place-eliot,2,Newton,,,,,,,,,,,,DOT_ADMIN,2020/05/21 10:32:42+00,DOT_ADMIN,2020/05/21 10:32:42+00
-71.2168310004506,42.3190240001308,645040,door-eliot-meredith,,Eliot - Meredith Ave,Eliot - Meredith Ave,,,42.319024,-71.216831,,,,level_in_street,2,place-eliot,1,Newton,,,,,,,,,,,,DOT_ADMIN,2020/05/21 10:32:42+00,DOT_ADMIN,2020/05/21 10:32:42+00
-71.1458669995085,42.3369640001159,645042,70235,70235,Englewood Avenue,Englewood Avenue - Green Line - (C) Cleveland Circle,,Cleveland Circle,42.336964,-71.145867,RapidTransit,,https://www.mbta.com/stops/place-engav,level_median,0,place-engav,2,Brookline,,,0,,,,,,,,,DOT_ADMIN,2020/05/21 10:32:42+00,DOT_ADMIN,2020/05/21 10:32:42+00
-71.1453680005955,42.3370110002436,645043,70236,70236,Englewood Avenue,Englewood Avenue - Green Line - Park Street & North,,Park Street & North,42.337011,-71.145368,RapidTransit,,https://www.mbta.com/stops/place-engav,level_median,0,place-engav,2,Brookline,,,0,,,,,,,,,DOT_ADMIN,2020/05/21 10:32:42+00,DOT_ADMIN,2020/05/21 10:32:42+00
-71.1312279996617,42.3396899999,645048,70227,70227,Fairbanks Street,Fairbanks Street - Green Line - (C) Cleveland Circle,,Cleveland Circle,42.33969,-71.131228,RapidTransit,,https://www.mbta.com/stops/place-fbkst,level_median,0,place-fbkst,2,Brookline,,,0,,,,,,,,,DOT_ADMIN,2020/05/21 10:32:42+00,DOT_ADMIN,2020/05/21 10:32:42+00
-71.1310779994074,42.3396439999805,645049,70228,70228,Fairbanks Street,Fairbanks Street - Green Line - Park Street & North,,Park Street & North,42.339644,-71.131078,RapidTransit,,https://www.mbta.com/stops/place-fbkst,level_median,0,place-fbkst,2,Brookline,,,0,,,,,,,,,DOT_ADMIN,2020/05/21 10:32:42+00,DOT_ADMIN,2020/05/21 10:32:42+00
-71.1057209994391,42.3337399996749,645051,70251,70251,Fenwood Road,Fenwood Road - Green Line - (E) Heath Street,,Heath Street,42.33374,-71.105721,RapidTransit,,https://www.mbta.com/stops/place-fenwd,level_in_street,0,place-fenwd,2,Boston,,,0,,,,,,,,,DOT_ADMIN,2020/05/21 10:32:42+00,DOT_ADMIN,2020/05/21 10:32:42+00
-71.1055829998539,42.3337060002777,645052,70252,70252,Fenwood Road,Fenwood Road - Green Line - Park Street & North,,Park Street & North,42.333706,-71.105583,RapidTransit,,https://www.mbta.com/stops/place-fenwd,level_in_street,0,place-fenwd,2,Boston,,,0,,,,,,,,,DOT_ADMIN,2020/05/21 10:32:42+00,DOT_ADMIN,2020/05/21 10:32:42+00
-71.1041620005505,42.3453620003079,645054,70186,70186,Fenway,Fenway - Green Line - Park Street & North,,Park Street & North,42.345362,-71.104162,RapidTransit,,https://www.mbta.com/stops/place-fenwy,level_ground,0,place-fenwy,1,Boston,,,0,,,,,,,,,DOT_ADMIN,2020/05/21 10:32:42+00,DOT_ADMIN,2020/05/21 10:32:42+00
-71.1041900000103,42.3453949996317,645055,70187,70187,Fenway,Fenway - Green Line - (D) Riverside,,Riverside,42.345395,-71.10419,RapidTransit,,https://www.mbta.com/stops/place-fenwy,level_ground,0,place-fenwy,1,Boston,,,0,,,,,,,,,DOT_ADMIN,2020/05/21 10:32:42+00,DOT_ADMIN,2020/05/21 10:32:42+00
-71.1041159994892,42.3453930001078,645056,door-fenwy-longwood,,"Fenway - Fenway Park, Park Dr, Longwood","Fenway - Fenway Park, Park Dr, Longwood",,,42.345393,-71.104116,,,,level_1_in_street,2,place-fenwy,1,Boston,,,,,,,,,,,,DOT_ADMIN,2020/05/21 10:32:42+00,DOT_ADMIN,2020/05/21 10:32:42+00
-71.1042299998376,42.3452980004171,645057,door-fenwy-parkdr,,Fenway - Park Dr (Stairs),Fenway - Park Dr (Stairs),,,42.345298,-71.10423,,,,level_ground,2,place-fenwy,2,Boston,,,,,,,,,,,,DOT_ADMIN,2020/05/21 10:32:42+00,DOT_ADMIN,2020/05/21 10:32:42+00
-71.0616670001144,42.3000929998762,645060,70089,70089,Fields Corner,Fields Corner - Red Line - Ashmont,,Ashmont,42.300093,-71.061667,RapidTransit,,https://www.mbta.com/stops/place-fldcr,level_1_platform,0,place-fldcr,1,Boston,,,1,,,,,,,,,DOT_ADMIN,2020/05/21 10:32:42+00,DOT_ADMIN,2020/05/21 10:32:42+00
-71.0616670001144,42.3000929998762,645061,70090,70090,Fields Corner,Fields Corner - Red Line - Alewife,,Alewife,42.300093,-71.061667,RapidTransit,,https://www.mbta.com/stops/place-fldcr,level_1_platform,0,place-fldcr,1,Boston,,,1,,,,,,,,,DOT_ADMIN,2020/05/21 10:32:42+00,DOT_ADMIN,2020/05/21 10:32:42+00
-71.0614750000586,42.3000189997768,645062,door-fldcr-busway,,"Fields Corner - Busway, Street","Fields Corner - Busway, Street",,,42.300019,-71.061475,,,,level_ground,2,place-fldcr,1,Boston,,,,,,,,,,,,DOT_ADMIN,2020/05/21 10:32:42+00,DOT_ADMIN,2020/05/21 10:32:42+00
-71.0618679995479,42.3004630000898,645063,door-fldcr-charles,,Fields Corner - Charles St,Fields Corner - Charles St,,,42.300463,-71.061868,,,,level_0.5_ground,2,place-fldcr,1,Boston,,,,,,,,,,,,DOT_ADMIN,2020/05/21 10:32:42+00,DOT_ADMIN,2020/05/21 10:32:42+00
-71.1136860006013,42.3005230003385,645066,70001,70001,Forest Hills,Forest Hills - Orange Line,,Orange Line,42.300523,-71.113686,RapidTransit,,https://www.mbta.com/stops/place-forhl,level_-1_orange_platform,0,place-forhl,1,Boston,,,1,,,,,,,,,DOT_ADMIN,2020/05/21 10:32:42+00,DOT_ADMIN,2020/05/21 10:32:42+00
-71.114009000292,42.3006350000176,645069,Forest Hills-01,,Forest Hills,Forest Hills - Orange Line - Track 1,1,Orange Line - Track 1,42.300635,-71.114009,RapidTransit,,https://www.mbta.com/stops/place-forhl,level_-1_orange_platform,0,place-forhl,1,Boston,,,1,,,,,,,,,DOT_ADMIN,2020/05/21 10:32:42+00,DOT_ADMIN,2020/05/21 10:32:42+00
-71.114009000292,42.3006350000176,645070,Forest Hills-02,,Forest Hills,Forest Hills - Orange Line - Track 2,2,Orange Line - Track 2,42.300635,-71.114009,RapidTransit,,https://www.mbta.com/stops/place-forhl,level_-1_orange_platform,0,place-forhl,1,Boston,,,1,,,,,,,,,DOT_ADMIN,2020/05/21 10:32:42+00,DOT_ADMIN,2020/05/21 10:32:42+00
-71.1138200004921,42.3009339997837,645071,door-forhl-arborway,,"Forest Hills - Arboretum, Washington St, South St","Forest Hills - Arboretum, Washington St, South St",,,42.300934,-71.11382,,,,level_washington_st,2,place-forhl,1,Boston,,,,,,,,,,,,DOT_ADMIN,2020/05/21 10:32:42+00,DOT_ADMIN,2020/05/21 10:32:42+00
-71.1136590001599,42.300572000166,645072,door-forhl-lower,,"Forest Hills - Hyde Park Ave, Franklin Park, Zoo, Parking","Forest Hills - Hyde Park Ave, Franklin Park, Zoo, Parking",,,42.300572,-71.113659,,,,level_hyde_park_ave,2,place-forhl,1,Boston,,,,,,,,,,,,DOT_ADMIN,2020/05/21 10:32:42+00,DOT_ADMIN,2020/05/21 10:32:42+00
-71.1135840001799,42.3019800001662,645073,door-forhl-south,,"Forest Hills - Arborway, Southwest Corridor Park","Forest Hills - Arborway, Southwest Corridor Park",,,42.30198,-71.113584,,,,level_washington_st,2,place-forhl,1,Boston,,,,,,,,,,,,DOT_ADMIN,2020/05/21 10:32:42+00,DOT_ADMIN,2020/05/21 10:32:42+00
-71.1141490000325,42.3004659997379,645074,door-forhl-upper,,Forest Hills - Washington St,Forest Hills - Washington St,,,42.300466,-71.114149,,,,level_washington_st,2,place-forhl,1,Boston,,,,,,,,,,,,DOT_ADMIN,2020/05/21 10:32:42+00,DOT_ADMIN,2020/05/21 10:32:42+00
-71.0592149998614,42.3597049998996,645076,70039,70039,Government Center,Government Center - Blue Line - Bowdoin,,Bowdoin,42.359705,-71.059215,RapidTransit,,https://www.mbta.com/stops/place-gover,level_-2_blue_platform,0,place-gover,1,Boston,,,1,,,,,,,,,DOT_ADMIN,2020/05/21 10:32:42+00,DOT_ADMIN,2020/05/21 10:32:42+00
-71.0592149998614,42.3597049998996,645077,70040,70040,Government Center,Government Center - Blue Line - Wonderland,,Wonderland,42.359705,-71.059215,RapidTransit,,https://www.mbta.com/stops/place-gover,level_-2_blue_platform,0,place-gover,1,Boston,,,1,,,,,,,,,DOT_ADMIN,2020/05/21 10:32:42+00,DOT_ADMIN,2020/05/21 10:32:42+00
-71.0592149998614,42.3597049998996,645078,70201,70201,Government Center,Government Center - Green Line - North Station & North,,North Station & North,42.359705,-71.059215,RapidTransit,,https://www.mbta.com/stops/place-gover,level_-1_green_platform,0,place-gover,1,Boston,,,0,,,,,,,,,DOT_ADMIN,2020/05/21 10:32:42+00,DOT_ADMIN,2020/05/21 10:32:42+00
-71.0592149998614,42.3597049998996,645079,70202,70202,Government Center,Government Center - Green Line - Copley & West,,Copley & West,42.359705,-71.059215,RapidTransit,,https://www.mbta.com/stops/place-gover,level_-1_green_platform,0,place-gover,1,Boston,,,0,,,,,,,,,DOT_ADMIN,2020/05/21 10:32:42+00,DOT_ADMIN,2020/05/21 10:32:42+00
-71.0592149998614,42.3597049998996,645080,Government Center-Brattle,,Government Center,Government Center - Green Line - Loop Platform,,Green Line - Loop Platform,42.359705,-71.059215,RapidTransit,,https://www.mbta.com/stops/place-gover,level_-1_green_platform,0,place-gover,1,Boston,,,0,,,,,,,,,DOT_ADMIN,2020/05/21 10:32:42+00,DOT_ADMIN,2020/05/21 10:32:42+00
-71.0593600000606,42.3596989996251,645081,door-gover-main,,Government Center - City Hall Plaza,Government Center - City Hall Plaza,,,42.359699,-71.05936,,,,level_in_street,2,place-gover,1,Boston,,,,,,,,,,,,DOT_ADMIN,2020/05/21 10:32:42+00,DOT_ADMIN,2020/05/21 10:32:42+00
-71.1345000002781,42.3487469998144,645083,70128,70128,Griggs Street,Griggs Street - Green Line - Park Street & North,,Park Street & North,42.348747,-71.1345,RapidTransit,,https://www.mbta.com/stops/place-grigg,level_median,0,place-grigg,2,Boston,,,0,,,,,,,,,DOT_ADMIN,2020/05/21 10:32:42+00,DOT_ADMIN,2020/05/21 10:32:42+00
-71.1343050003548,42.3489190003266,645084,70129,70129,Griggs Street,Griggs Street - Green Line - (B) Boston College,,Boston College,42.348919,-71.134305,RapidTransit,,https://www.mbta.com/stops/place-grigg,level_median,0,place-grigg,2,Boston,,,0,,,,,,,,,DOT_ADMIN,2020/05/21 10:32:42+00,DOT_ADMIN,2020/05/21 10:32:42+00
-71.1074140004783,42.3105249998957,645086,70002,70002,Green Street,Green Street - Orange Line - Forest Hills,,Forest Hills,42.310525,-71.107414,RapidTransit,,https://www.mbta.com/stops/place-grnst,level_-1_platform,0,place-grnst,1,Boston,,,1,,,,,,,,,DOT_ADMIN,2020/05/21 10:32:42+00,DOT_ADMIN,2020/05/21 10:32:42+00
-71.1074140004783,42.3105249998957,645087,70003,70003,Green Street,Green Street - Orange Line - Oak Grove,,Oak Grove,42.310525,-71.107414,RapidTransit,,https://www.mbta.com/stops/place-grnst,level_-1_platform,0,place-grnst,1,Boston,,,1,,,,,,,,,DOT_ADMIN,2020/05/21 10:32:42+00,DOT_ADMIN,2020/05/21 10:32:42+00
-71.1075189996647,42.3105560001761,645088,door-grnst-main,,"Green Street - Woolsey Sq, Green St, Amory St","Green Street - Woolsey Sq, Green St, Amory St",,,42.310556,-71.107519,,,,level_in_street,2,place-grnst,1,Boston,,,,,,,,,,,,DOT_ADMIN,2020/05/21 10:32:42+00,DOT_ADMIN,2020/05/21 10:32:42+00
-71.0582899997818,42.3630210002022,645090,70024,70024,Haymarket,Haymarket - Orange Line - Forest Hills,3,Forest Hills,42.363021,-71.05829,RapidTransit,,https://www.mbta.com/stops/place-haecl,level_-1_orange_platform,0,place-haecl,1,Boston,,,1,,,,,,,,,DOT_ADMIN,2020/05/21 10:32:42+00,DOT_ADMIN,2020/05/21 10:32:42+00
-71.0582899997818,42.3630210002022,645091,70025,70025,Haymarket,Haymarket - Orange Line - Oak Grove,4,Oak Grove,42.363021,-71.05829,RapidTransit,,https://www.mbta.com/stops/place-haecl,level_-1_orange_platform,0,place-haecl,1,Boston,,,1,,,,,,,,,DOT_ADMIN,2020/05/21 10:32:42+00,DOT_ADMIN,2020/05/21 10:32:42+00
-71.0582899997818,42.3630210002022,645092,70203,70203,Haymarket,Haymarket - Green Line - North Station & North,2,North Station & North,42.363021,-71.05829,RapidTransit,,https://www.mbta.com/stops/place-haecl,level_-1_green_platform,0,place-haecl,1,Boston,,,0,,,,,,,,,DOT_ADMIN,2020/05/21 10:32:42+00,DOT_ADMIN,2020/05/21 10:32:42+00
-71.0582899997818,42.3630210002022,645093,70204,70204,Haymarket,Haymarket - Green Line - Copley & West,1,Copley & West,42.363021,-71.05829,RapidTransit,,https://www.mbta.com/stops/place-haecl,level_-1_green_platform,0,place-haecl,1,Boston,,,0,,,,,,,,,DOT_ADMIN,2020/05/21 10:32:42+00,DOT_ADMIN,2020/05/21 10:32:42+00
-71.058138000337,42.3628999998764,645095,door-haecl-busway,,"Haymarket - RMV, Sudbury St, New Chardon St","Haymarket - RMV, Sudbury St, New Chardon St",,,42.3629,-71.058138,,,,level_in_street,2,place-haecl,1,Boston,,,,,,,,,,,,DOT_ADMIN,2020/05/21 10:32:42+00,DOT_ADMIN,2020/05/21 10:32:42+00
-71.0578049998059,42.3619770004378,645096,door-haecl-congress,,"Haymarket - RMV, City Hall, Faneuil Hall Marketplace","Haymarket - RMV, City Hall, Faneuil Hall Marketplace",,,42.361977,-71.057805,,,,level_in_street,2,place-haecl,1,Boston,,,,,,,,,,,,DOT_ADMIN,2020/05/21 10:32:42+00,DOT_ADMIN,2020/05/21 10:32:42+00
-71.1189560001659,42.3733619995845,645100,20762,20762,Harvard,Harvard - Busway,,Busway,42.373362,-71.118956,,,https://www.mbta.com/stops/place-harsq,level_-1_up_busway,0,place-harsq,0,Cambridge,Harvard Busway,,,,,,,,,,,DOT_ADMIN,2020/05/21 10:32:42+00,DOT_ADMIN,2020/05/21 10:32:42+00
-71.1189560001659,42.3733619995845,645101,70067,70067,Harvard,Harvard - Red Line - Ashmont/Braintree,,Ashmont/Braintree,42.373362,-71.118956,RapidTransit,,https://www.mbta.com/stops/place-harsq,level_-2_southbound_platform,0,place-harsq,1,Cambridge,,,1,,,,,,,,,DOT_ADMIN,2020/05/21 10:32:42+00,DOT_ADMIN,2020/05/21 10:32:42+00
-71.1189560001659,42.3733619995845,645102,70068,70068,Harvard,Harvard - Red Line - Alewife,,Alewife,42.373362,-71.118956,RapidTransit,,https://www.mbta.com/stops/place-harsq,level_-1_alewife_platform,0,place-harsq,1,Cambridge,,,1,,,,,,,,,DOT_ADMIN,2020/05/21 10:32:42+00,DOT_ADMIN,2020/05/21 10:32:42+00
-71.1205450000204,42.3733100002856,645103,door-harsq-brattle,,Harvard - Brattle Square,Harvard - Brattle Square,,,42.37331,-71.120545,,,,level_in_street,2,place-harsq,1,Cambridge,,,,,,,,,,,,DOT_ADMIN,2020/05/21 10:32:42+00,DOT_ADMIN,2020/05/21 10:32:42+00
-71.1189560003944,42.3743169998794,645104,door-harsq-church,,"Harvard - Church St, Harvard Square","Harvard - Church St, Harvard Square",,,42.374317,-71.118956,,,,level_in_street,2,place-harsq,2,Cambridge,,,,,,,,,,,,DOT_ADMIN,2020/05/21 10:32:42+00,DOT_ADMIN,2020/05/21 10:32:42+00
-71.1190040000694,42.3733710002675,645105,door-harsq-square,,Harvard - Harvard Square,Harvard - Harvard Square,,,42.373371,-71.119004,,,,level_in_street,2,place-harsq,2,Cambridge,,,,,,,,,,,,DOT_ADMIN,2020/05/21 10:32:42+00,DOT_ADMIN,2020/05/21 10:32:42+00
-71.11866899996,42.3743839996362,645106,door-harsq-yard,,"Harvard - Church St, Harvard Yard","Harvard - Church St, Harvard Yard",,,42.374384,-71.118669,,,,level_in_street,2,place-harsq,2,Cambridge,,,,,,,,,,,,DOT_ADMIN,2020/05/21 10:32:42+00,DOT_ADMIN,2020/05/21 10:32:42+00
-71.1312980004747,42.3502630003597,645108,70130,70130,Harvard Avenue,Harvard Avenue - Green Line - Park Street & North,,Park Street & North,42.350263,-71.131298,RapidTransit,,https://www.mbta.com/stops/place-harvd,level_median,0,place-harvd,1,Boston,,,0,,,,,,,,,DOT_ADMIN,2020/05/21 10:32:42+00,DOT_ADMIN,2020/05/21 10:32:42+00
-71.1307270003274,42.3506020003452,645109,70131,70131,Harvard Avenue,Harvard Avenue - Green Line - (B) Boston College,,Boston College,42.350602,-71.130727,RapidTransit,,https://www.mbta.com/stops/place-harvd,level_median,0,place-harvd,1,Boston,,,0,,,,,,,,,DOT_ADMIN,2020/05/21 10:32:42+00,DOT_ADMIN,2020/05/21 10:32:42+00
-71.1102520005487,42.3283160000583,645111,70260,70260,Heath Street,Heath Street - Green Line,,Green Line,42.328316,-71.110252,RapidTransit,,https://www.mbta.com/stops/place-hsmnl,level_ground,0,place-hsmnl,1,Boston,,,0,,,,,,,,,DOT_ADMIN,2020/05/21 10:32:42+00,DOT_ADMIN,2020/05/21 10:32:42+00
-71.1117610000169,42.3447580003929,645113,70213,70213,Hawes Street,Hawes Street - Green Line - (C) Cleveland Circle,,Cleveland Circle,42.344758,-71.111761,RapidTransit,,https://www.mbta.com/stops/place-hwsst,level_median,0,place-hwsst,2,Brookline,,,0,,,,,,,,,DOT_ADMIN,2020/05/21 10:32:42+00,DOT_ADMIN,2020/05/21 10:32:42+00
-71.1111570001237,42.3448670003428,645114,70214,70214,Hawes Street,Hawes Street - Green Line - Park Street & North,,Park Street & North,42.344867,-71.111157,RapidTransit,,https://www.mbta.com/stops/place-hwsst,level_median,0,place-hwsst,2,Brookline,,,0,,,,,,,,,DOT_ADMIN,2020/05/21 10:32:42+00,DOT_ADMIN,2020/05/21 10:32:42+00
-71.0879029999983,42.3478879995576,645116,70152,70152,Hynes Convention Center,Hynes Convention Center - Green Line - Park Street & North,,Park Street & North,42.347888,-71.087903,RapidTransit,,https://www.mbta.com/stops/place-hymnl,level_-2_platform,0,place-hymnl,2,Boston,,,0,,,,,,,,,DOT_ADMIN,2020/05/21 10:32:42+00,DOT_ADMIN,2020/05/21 10:32:42+00
-71.0879029999983,42.3478879995576,645117,70153,70153,Hynes Convention Center,Hynes Convention Center - Green Line - Kenmore & West,,Kenmore & West,42.347888,-71.087903,RapidTransit,,https://www.mbta.com/stops/place-hymnl,level_-2_platform,0,place-hymnl,2,Boston,,,0,,,,,,,,,DOT_ADMIN,2020/05/21 10:32:42+00,DOT_ADMIN,2020/05/21 10:32:42+00
-71.0878250003812,42.3478370002771,645118,door-hymnl-mass,,"Hynes Convention Center - Massachusetts Ave, Buses","Hynes Convention Center - Massachusetts Ave, Buses",,,42.347837,-71.087825,,,,level_in_street,2,place-hymnl,2,Boston,,,,,,,,,,,,DOT_ADMIN,2020/05/21 10:32:42+00,DOT_ADMIN,2020/05/21 10:32:42+00
-71.0875549996304,42.3481509999583,645119,door-hymnl-newbury,,Hynes Convention Center - Newbury St,Hynes Convention Center - Newbury St,,,42.348151,-71.087555,,,,level_in_street,2,place-hymnl,2,Boston,,,,,,,,,,,,DOT_ADMIN,2020/05/21 10:32:42+00,DOT_ADMIN,2020/05/21 10:32:42+00
-71.0995919998401,42.3231319999842,645122,70006,70006,Jackson Square,Jackson Square - Orange Line - Forest Hills,,Forest Hills,42.323132,-71.099592,RapidTransit,,https://www.mbta.com/stops/place-jaksn,level_-1_platform,0,place-jaksn,1,Boston,,,1,,,,,,,,,DOT_ADMIN,2020/05/21 10:32:42+00,DOT_ADMIN,2020/05/21 10:32:42+00
-71.0995919998401,42.3231319999842,645123,70007,70007,Jackson Square,Jackson Square - Orange Line - Oak Grove,,Oak Grove,42.323132,-71.099592,RapidTransit,,https://www.mbta.com/stops/place-jaksn,level_-1_platform,0,place-jaksn,1,Boston,,,1,,,,,,,,,DOT_ADMIN,2020/05/21 10:32:42+00,DOT_ADMIN,2020/05/21 10:32:42+00
-71.0998790003566,42.3230140001485,645124,door-jaksn-main,,"Jackson Square - Centre St, Busway, Park","Jackson Square - Centre St, Busway, Park",,,42.323014,-71.099879,,,,level_ground,2,place-jaksn,1,Boston,,,,,,,,,,,,DOT_ADMIN,2020/05/21 10:32:42+00,DOT_ADMIN,2020/05/21 10:32:42+00
-71.0523909998273,42.3206849995818,645127,70085,70085,JFK/UMass,JFK/UMass - Red Line - Ashmont,,Ashmont,42.320685,-71.052391,RapidTransit,,https://www.mbta.com/stops/place-jfk,level_0_red_platform,0,place-jfk,1,Boston,,,1,,,,,,,,,DOT_ADMIN,2020/05/21 10:32:42+00,DOT_ADMIN,2020/05/21 10:32:42+00
-71.0523909998273,42.3206849995818,645128,70086,70086,JFK/UMass,JFK/UMass - Red Line - Alewife (from Ashmont),,Alewife (from Ashmont),42.320685,-71.052391,RapidTransit,,https://www.mbta.com/stops/place-jfk,level_0_red_platform,0,place-jfk,1,Boston,,,1,,,,,,,,,DOT_ADMIN,2020/05/21 10:32:42+00,DOT_ADMIN,2020/05/21 10:32:42+00
-71.0523909998273,42.3206849995818,645129,70095,70095,JFK/UMass,JFK/UMass - Red Line - Braintree,,Braintree,42.320685,-71.052391,RapidTransit,,https://www.mbta.com/stops/place-jfk,level_0_red_platform,0,place-jfk,1,Boston,,,1,,,,,,,,,DOT_ADMIN,2020/05/21 10:32:42+00,DOT_ADMIN,2020/05/21 10:32:42+00
-71.0523909998273,42.3206849995818,645130,70096,70096,JFK/UMass,JFK/UMass - Red Line - Alewife (from Braintree),,Alewife (from Braintree),42.320685,-71.052391,RapidTransit,,https://www.mbta.com/stops/place-jfk,level_0_red_platform,0,place-jfk,1,Boston,,,1,,,,,,,,,DOT_ADMIN,2020/05/21 10:32:42+00,DOT_ADMIN,2020/05/21 10:32:42+00
-71.0515450002939,42.3204860003018,645132,door-jfk-busway,,"JFK/UMass - Busway, JFK Library, Mount Vernon St (Ramp)","JFK/UMass - Busway, JFK Library, Mount Vernon St (Ramp)",,,42.320486,-71.051545,,,,level_ground,2,place-jfk,1,Boston,,,,,,,,,,,,DOT_ADMIN,2020/05/21 10:32:42+00,DOT_ADMIN,2020/05/21 10:32:42+00
-71.0525829998873,42.3213579999951,645133,door-jfk-columbia,,JFK/UMass - Columbia Rd,JFK/UMass - Columbia Rd,,,42.321358,-71.052583,,,,level_columbia_rd,2,place-jfk,1,Boston,,,,,,,,,,,,DOT_ADMIN,2020/05/21 10:32:42+00,DOT_ADMIN,2020/05/21 10:32:42+00
-71.0516230002902,42.320828999662,645134,door-jfk-oldcolony,,"JFK/UMass - Busway, JFK Library, Mount Vernon St (Stairs)","JFK/UMass - Busway, JFK Library, Mount Vernon St (Stairs)",,,42.320829,-71.051623,,,,level_ground,2,place-jfk,2,Boston,,,,,,,,,,,,DOT_ADMIN,2020/05/21 10:32:42+00,DOT_ADMIN,2020/05/21 10:32:42+00
-71.0527130002024,42.3205970002361,645135,door-jfk-sydneyn,,JFK/UMass - Sydney St (North),JFK/UMass - Sydney St (North),,,42.320597,-71.052713,,,,level_in_street,2,place-jfk,2,Boston,,,,,,,,,,,,DOT_ADMIN,2020/05/21 10:32:42+00,DOT_ADMIN,2020/05/21 10:32:42+00
-71.05260200009,42.3198949997333,645136,door-jfk-sydneys,,JFK/UMass - Sydney St (South),JFK/UMass - Sydney St (South),,,42.319895,-71.052602,,,,level_in_street,2,place-jfk,2,Boston,,,,,,,,,,,,DOT_ADMIN,2020/05/21 10:32:42+00,DOT_ADMIN,2020/05/21 10:32:42+00
-71.0951690003072,42.3489489998777,645138,70150,70150,Kenmore,Kenmore - Green Line - Park Street & North,,Park Street & North,42.348949,-71.095169,RapidTransit,,https://www.mbta.com/stops/place-kencl,level_-2_platform,0,place-kencl,1,Boston,,,0,,,,,,,,,DOT_ADMIN,2020/05/21 10:32:42+00,DOT_ADMIN,2020/05/21 10:32:42+00
-71.0951690003072,42.3489489998777,645139,70151,70151,Kenmore,Kenmore - Green Line - (C) Cleveland Circle/(D) Riverside,,Cleveland Circle/Riverside,42.348949,-71.095169,RapidTransit,,https://www.mbta.com/stops/place-kencl,level_-2_platform,0,place-kencl,1,Boston,,,0,,,,,,,,,DOT_ADMIN,2020/05/21 10:32:42+00,DOT_ADMIN,2020/05/21 10:32:42+00
-71.0951690003072,42.3489489998777,645140,71150,71150,Kenmore,Kenmore - Green Line - Park Street & North,,Park Street & North,42.348949,-71.095169,RapidTransit,,https://www.mbta.com/stops/place-kencl,level_-2_platform,0,place-kencl,1,Boston,,,0,,,,,,,,,DOT_ADMIN,2020/05/21 10:32:42+00,DOT_ADMIN,2020/05/21 10:32:42+00
-71.0951690003072,42.3489489998777,645141,71151,71151,Kenmore,Kenmore - Green Line - (B) Boston College,,Boston College,42.348949,-71.095169,RapidTransit,,https://www.mbta.com/stops/place-kencl,level_-2_platform,0,place-kencl,1,Boston,,,0,,,,,,,,,DOT_ADMIN,2020/05/21 10:32:42+00,DOT_ADMIN,2020/05/21 10:32:42+00
-71.0955490005326,42.3492730003765,645143,door-kencl-beacon,,"Kenmore - Boston University, Beacon St","Kenmore - Boston University, Beacon St",,,42.349273,-71.095549,,,,level_in_street,2,place-kencl,2,Boston,,,,,,,,,,,,DOT_ADMIN,2020/05/21 10:32:42+00,DOT_ADMIN,2020/05/21 10:32:42+00
-71.0954199998245,42.3488820004514,645144,door-kencl-busway,,"Kenmore - Busway, Commonwealth Ave","Kenmore - Busway, Commonwealth Ave",,,42.348882,-71.09542,,,,level_ground,2,place-kencl,1,Boston,,,,,,,,,,,,DOT_ADMIN,2020/05/21 10:32:42+00,DOT_ADMIN,2020/05/21 10:32:42+00
-71.0955199998518,42.3486160003196,645145,door-kencl-commonwealth,,"Kenmore - Fenway Park, Commonwealth Ave","Kenmore - Fenway Park, Commonwealth Ave",,,42.348616,-71.09552,,,,level_in_street,2,place-kencl,1,Boston,,,,,,,,,,,,DOT_ADMIN,2020/05/21 10:32:42+00,DOT_ADMIN,2020/05/21 10:32:42+00
-71.08560499999,42.3623550000496,645147,70071,70071,Kendall/MIT,Kendall/MIT - Red Line - Ashmont/Braintree,,Ashmont/Braintree,42.362355,-71.085605,RapidTransit,,https://www.mbta.com/stops/place-knncl,level_-1_platform,0,place-knncl,1,Cambridge,,,1,,,,,,,,,DOT_ADMIN,2020/05/21 10:32:42+00,DOT_ADMIN,2020/05/21 10:32:42+00
-71.0855910002781,42.3624340003456,645148,70072,70072,Kendall/MIT,Kendall/MIT - Red Line - Alewife,,Alewife,42.362434,-71.085591,RapidTransit,,https://www.mbta.com/stops/place-knncl,level_-1_platform,0,place-knncl,1,Cambridge,,,1,,,,,,,,,DOT_ADMIN,2020/05/21 10:32:42+00,DOT_ADMIN,2020/05/21 10:32:42+00
-71.0861670001557,42.3625879997923,645149,door-knncl-nbmain,,"Kendall/MIT - Main St, Buses, Cambridge Center","Kendall/MIT - Main St, Buses, Cambridge Center",,,42.362588,-71.086167,,,,level_in_street,2,place-knncl,1,Cambridge,,,,,,,,,,,,DOT_ADMIN,2020/05/21 10:32:42+00,DOT_ADMIN,2020/05/21 10:32:42+00
-71.0848369994351,42.3624390001863,645150,door-knncl-nbsecond,,"Kendall/MIT - Main St, Third St","Kendall/MIT - Main St, Third St",,,42.362439,-71.084837,,,,level_in_street,2,place-knncl,2,Cambridge,,,,,,,,,,,,DOT_ADMIN,2020/05/21 10:32:42+00,DOT_ADMIN,2020/05/21 10:32:42+00
-71.0862059995724,42.362259000025,645151,door-knncl-sbmain,,"Kendall/MIT - Main St, Buses, Cambridge Center","Kendall/MIT - Main St, Buses, Cambridge Center",,,42.362259,-71.086206,,,,level_in_street,2,place-knncl,1,Cambridge,,,,,,,,,,,,DOT_ADMIN,2020/05/21 10:32:42+00,DOT_ADMIN,2020/05/21 10:32:42+00
-71.0848619997001,42.3622319997369,645152,door-knncl-sbsecond,,"Kendall/MIT - Main St, Third St","Kendall/MIT - Main St, Third St",,,42.362232,-71.084862,,,,level_in_street,2,place-knncl,2,Cambridge,,,,,,,,,,,,DOT_ADMIN,2020/05/21 10:32:42+00,DOT_ADMIN,2020/05/21 10:32:42+00
-71.1140969997896,42.3441170004228,645154,70215,70215,Kent Street,Kent Street - Green Line - (C) Cleveland Circle,,Cleveland Circle,42.344117,-71.114097,RapidTransit,,https://www.mbta.com/stops/place-kntst,level_median,0,place-kntst,2,Brookline,,,0,,,,,,,,,DOT_ADMIN,2020/05/21 10:32:42+00,DOT_ADMIN,2020/05/21 10:32:42+00
-71.1145690005975,42.3439269999293,645155,70216,70216,Kent Street,Kent Street - Green Line - Park Street & North,,Park Street & North,42.343927,-71.114569,RapidTransit,,https://www.mbta.com/stops/place-kntst,level_median,0,place-kntst,2,Brookline,,,0,,,,,,,,,DOT_ADMIN,2020/05/21 10:32:42+00,DOT_ADMIN,2020/05/21 10:32:42+00
-71.1670289993958,42.3401489997242,645157,70106,70106,Boston College,Boston College - Green Line - Park Street & North,,Park Street & North,42.340149,-71.167029,RapidTransit,,https://www.mbta.com/stops/place-lake,level_ground,0,place-lake,1,Boston,,,0,,,,,,,,,DOT_ADMIN,2020/05/21 10:32:42+00,DOT_ADMIN,2020/05/21 10:32:42+00
-71.1668490002968,42.3402399998938,645158,70107,70107,Boston College,Boston College - Green Line - Exit Only,,Exit Only,42.34024,-71.166849,RapidTransit,,https://www.mbta.com/stops/place-lake,level_ground,0,place-lake,1,Boston,,,0,,,,,,,,,DOT_ADMIN,2020/05/21 10:32:42+00,DOT_ADMIN,2020/05/21 10:32:42+00
-71.0770069995364,42.3709520003964,645161,70209,70209,Lechmere,Lechmere - Green Line - Exit Only,,Exit Only,42.370952,-71.077007,RapidTransit,,https://www.mbta.com/stops/place-lech,level_ground,0,place-lech,1,Cambridge,,,0,,,,,,,,,DOT_ADMIN,2020/05/21 10:32:42+00,DOT_ADMIN,2020/05/21 10:32:42+00
-71.0770949998565,42.3709109998769,645162,70210,70210,Lechmere,Lechmere - Green Line - Copley & West,,Copley & West,42.370911,-71.077095,RapidTransit,,https://www.mbta.com/stops/place-lech,level_ground,0,place-lech,1,Cambridge,,,0,,,,,,,,,DOT_ADMIN,2020/05/21 10:32:42+00,DOT_ADMIN,2020/05/21 10:32:42+00
-71.077482999867,42.3709140003071,645164,door-lech-entrance,,Lechmere - Entrance,Lechmere - Entrance,,,42.370914,-71.077483,,,,level_ground,2,place-lech,1,Cambridge,,,,,,,,,,,,DOT_ADMIN,2020/05/21 10:32:42+00,DOT_ADMIN,2020/05/21 10:32:42+00
-71.0772920001816,42.3711389996944,645165,door-lech-exit,,Lechmere - Exit Only,Lechmere - Exit Only,,,42.371139,-71.077292,,,,level_ground,2,place-lech,1,Cambridge,,,,,,,,,,,,DOT_ADMIN,2020/05/21 10:32:42+00,DOT_ADMIN,2020/05/21 10:32:42+00
-71.0998829996846,42.336080000056,645167,70247,70247,Longwood Medical Area,Longwood Medical Area - Green Line - (E) Heath Street,,Heath Street,42.33608,-71.099883,RapidTransit,,https://www.mbta.com/stops/place-lngmd,level_median,0,place-lngmd,1,Boston,,,0,,,,,,,,,DOT_ADMIN,2020/05/21 10:32:42+00,DOT_ADMIN,2020/05/21 10:32:42+00
-71.0993280001161,42.3362170003614,645168,70248,70248,Longwood Medical Area,Longwood Medical Area - Green Line - Park Street & North,,Park Street & North,42.336217,-71.099328,RapidTransit,,https://www.mbta.com/stops/place-lngmd,level_median,0,place-lngmd,1,Boston,,,0,,,,,,,,,DOT_ADMIN,2020/05/21 10:32:42+00,DOT_ADMIN,2020/05/21 10:32:42+00
-71.1103930001563,42.341123000161,645170,70182,70182,Longwood,Longwood - Green Line - Park Street & North,,Park Street & North,42.341123,-71.110393,RapidTransit,,https://www.mbta.com/stops/place-longw,level_ground,0,place-longw,1,Brookline,,,0,,,,,,,,,DOT_ADMIN,2020/05/21 10:32:42+00,DOT_ADMIN,2020/05/21 10:32:42+00
-71.1104469999019,42.3411430003518,645171,70183,70183,Longwood,Longwood - Green Line - (D) Riverside,,Riverside,42.341143,-71.110447,RapidTransit,,https://www.mbta.com/stops/place-longw,level_ground,0,place-longw,1,Brookline,,,0,,,,,,,,,DOT_ADMIN,2020/05/21 10:32:42+00,DOT_ADMIN,2020/05/21 10:32:42+00
-71.1098969995843,42.3418920002718,645172,door-longw-colchester,,"Longwood - Chapel St, Colchester St","Longwood - Chapel St, Colchester St",,,42.341892,-71.109897,,,,level_in_street,2,place-longw,2,Brookline,,,,,,,,,,,,DOT_ADMIN,2020/05/21 10:32:42+00,DOT_ADMIN,2020/05/21 10:32:42+00
-71.1102979998339,42.3415419997834,645173,door-longw-longwood,,"Longwood - Chapel St, Longwood Ave","Longwood - Chapel St, Longwood Ave",,,42.341542,-71.110298,,,,level_in_street,2,place-longw,1,Brookline,,,,,,,,,,,,DOT_ADMIN,2020/05/21 10:32:42+00,DOT_ADMIN,2020/05/21 10:32:42+00
-71.1100989998692,42.3414429997756,645174,door-longw-necklace,,Longwood - Emerald Necklace,Longwood - Emerald Necklace,,,42.341443,-71.110099,,,,level_ground,2,place-longw,1,Brookline,,,,,,,,,,,,DOT_ADMIN,2020/05/21 10:32:42+00,DOT_ADMIN,2020/05/21 10:32:42+00
-71.0834230000624,42.3415119997526,645176,70012,70012,Massachusetts Avenue,Massachusetts Avenue - Orange Line - Forest Hills,,Forest Hills,42.341512,-71.083423,RapidTransit,,https://www.mbta.com/stops/place-masta,level_-1_platform,0,place-masta,1,Boston,,,1,,,,,,,,,DOT_ADMIN,2020/05/21 10:32:42+00,DOT_ADMIN,2020/05/21 10:32:42+00
-71.0834230000624,42.3415119997526,645177,70013,70013,Massachusetts Avenue,Massachusetts Avenue - Orange Line - Oak Grove,,Oak Grove,42.341512,-71.083423,RapidTransit,,https://www.mbta.com/stops/place-masta,level_-1_platform,0,place-masta,1,Boston,,,1,,,,,,,,,DOT_ADMIN,2020/05/21 10:32:42+00,DOT_ADMIN,2020/05/21 10:32:42+00
-71.0847629994027,42.3403790001655,645178,door-masta-camden,,Massachusetts Avenue - Camden St,Massachusetts Avenue - Camden St,,,42.340379,-71.084763,,,,level_ground,2,place-masta,2,Boston,,,,,,,,,,,,DOT_ADMIN,2020/05/21 10:32:42+00,DOT_ADMIN,2020/05/21 10:32:42+00
-71.0831669999942,42.3417730004226,645179,door-masta-corridor,,Massachusetts Avenue - Massachusetts Ave (Northside),Massachusetts Avenue - Massachusetts Ave (Northside),,,42.341773,-71.083167,,,,level_in_street,2,place-masta,1,Boston,,,,,,,,,,,,DOT_ADMIN,2020/05/21 10:32:42+00,DOT_ADMIN,2020/05/21 10:32:42+00
-71.0834360001833,42.3415509998237,645180,door-masta-main,,Massachusetts Avenue - Massachusetts Ave (Southside),Massachusetts Avenue - Massachusetts Ave (Southside),,,42.341551,-71.083436,,,,level_in_street,2,place-masta,1,Boston,,,,,,,,,,,,DOT_ADMIN,2020/05/21 10:32:42+00,DOT_ADMIN,2020/05/21 10:32:42+00
-71.0834339995275,42.3413639999507,645181,door-masta-side,,Massachusetts Avenue - Southwest Corridor Park,Massachusetts Avenue - Southwest Corridor Park,,,42.341364,-71.083434,,,,level_ground,2,place-masta,1,Boston,,,,,,,,,,,,DOT_ADMIN,2020/05/21 10:32:42+00,DOT_ADMIN,2020/05/21 10:32:42+00
-71.0920499999192,42.2675280001577,645185,70275,70275,Mattapan,Mattapan - Mattapan Trolley - Exit Only,,Exit Only,42.267528,-71.09205,RapidTransit,,https://www.mbta.com/stops/place-matt,level_ground,0,place-matt,1,Boston,,,0,,,,,,,,,DOT_ADMIN,2020/05/21 10:32:42+00,DOT_ADMIN,2020/05/21 10:32:42+00
-71.091982999588,42.2674979998078,645186,70276,70276,Mattapan,Mattapan - Mattapan Trolley - Ashmont,,Ashmont,42.267498,-71.091983,RapidTransit,,https://www.mbta.com/stops/place-matt,level_ground,0,place-matt,1,Boston,,,0,,,,,,,,,DOT_ADMIN,2020/05/21 10:32:42+00,DOT_ADMIN,2020/05/21 10:32:42+00
-71.0918710001957,42.2677440003125,645187,door-matt-neponset,,"Mattapan - Neponset Trail, Parking","Mattapan - Neponset Trail, Parking",,,42.267744,-71.091871,,,,level_ground,2,place-matt,1,Boston,,,,,,,,,,,,DOT_ADMIN,2020/05/21 10:32:42+00,DOT_ADMIN,2020/05/21 10:32:42+00
-71.0922240003666,42.267684000173,645188,door-matt-northbus,,Mattapan - Upper Busway,Mattapan - Upper Busway,,,42.267684,-71.092224,,,,level_ground,2,place-matt,1,Boston,,,,,,,,,,,,DOT_ADMIN,2020/05/21 10:32:42+00,DOT_ADMIN,2020/05/21 10:32:42+00
-71.0923760001084,42.2674310000873,645189,door-matt-southbus,,Mattapan - Lower Busway,Mattapan - Lower Busway,,,42.267431,-71.092376,,,,level_ground,2,place-matt,1,Boston,,,,,,,,,,,,DOT_ADMIN,2020/05/21 10:32:42+00,DOT_ADMIN,2020/05/21 10:32:42+00
-71.0930889998991,42.2675160003274,645190,door-matt-square,,Mattapan - Mattapan Square,Mattapan - Mattapan Square,,,42.267516,-71.093089,,,,level_ground,2,place-matt,1,Boston,,,,,,,,,,,,DOT_ADMIN,2020/05/21 10:32:42+00,DOT_ADMIN,2020/05/21 10:32:42+00
-71.0952400003343,42.3378750000332,645192,70245,70245,Museum of Fine Arts,Museum of Fine Arts - Green Line - (E) Heath Street,,Heath Street,42.337875,-71.09524,RapidTransit,,https://www.mbta.com/stops/place-mfa,level_median,0,place-mfa,1,Boston,,,0,,,,,,,,,DOT_ADMIN,2020/05/21 10:32:42+00,DOT_ADMIN,2020/05/21 10:32:42+00
-71.0946820001023,42.3380170000206,645193,70246,70246,Museum of Fine Arts,Museum of Fine Arts - Green Line - Park Street & North,,Park Street & North,42.338017,-71.094682,RapidTransit,,https://www.mbta.com/stops/place-mfa,level_median,0,place-mfa,1,Boston,,,0,,,,,,,,,DOT_ADMIN,2020/05/21 10:32:42+00,DOT_ADMIN,2020/05/21 10:32:42+00
-71.0676740005315,42.2703049998662,645195,70267,70267,Milton,Milton - Mattapan Trolley - Mattapan,,Mattapan,42.270305,-71.067674,RapidTransit,,https://www.mbta.com/stops/place-miltt,level_ground,0,place-miltt,1,Milton,,,0,,,,,,,,,DOT_ADMIN,2020/05/21 10:32:42+00,DOT_ADMIN,2020/05/21 10:32:42+00
-71.0676659999443,42.2702750003308,645196,70268,70268,Milton,Milton - Mattapan Trolley - Ashmont,,Ashmont,42.270275,-71.067666,RapidTransit,,https://www.mbta.com/stops/place-miltt,level_ground,0,place-miltt,1,Milton,,,0,,,,,,,,,DOT_ADMIN,2020/05/21 10:32:42+00,DOT_ADMIN,2020/05/21 10:32:42+00
-71.067694000324,42.2702480001947,645197,door-miltt-adams,,Milton - Adams St,Milton - Adams St,,,42.270248,-71.067694,,,,level_1_in_street,2,place-miltt,2,Milton,,,,,,,,,,,,DOT_ADMIN,2020/05/21 10:32:42+00,DOT_ADMIN,2020/05/21 10:32:42+00
-71.0670050001199,42.2704360004148,645198,door-miltt-trail,,Milton - Neponset Trail,Milton - Neponset Trail,,,42.270436,-71.067005,,,,level_ground,2,place-miltt,1,Milton,,,,,,,,,,,,DOT_ADMIN,2020/05/21 10:32:42+00,DOT_ADMIN,2020/05/21 10:32:42+00
-71.067246000272,42.2702750002995,645199,door-miltt-wharf,,"Milton - Parking, Wharf St","Milton - Parking, Wharf St",,,42.270275,-71.067246,,,,level_ground,2,place-miltt,1,Milton,,,,,,,,,,,,DOT_ADMIN,2020/05/21 10:32:42+00,DOT_ADMIN,2020/05/21 10:32:42+00
-71.1092759994445,42.333278999878,645201,70253,70253,Mission Park,Mission Park - Green Line - (E) Heath Street,,Heath Street,42.333279,-71.109276,RapidTransit,,https://www.mbta.com/stops/place-mispk,level_in_street,0,place-mispk,2,Boston,,,0,,,,,,,,,DOT_ADMIN,2020/05/21 10:32:42+00,DOT_ADMIN,2020/05/21 10:32:42+00
-71.1096799996139,42.3330920003393,645202,70254,70254,Mission Park,Mission Park - Green Line - Park Street & North,,Park Street & North,42.333092,-71.10968,RapidTransit,,https://www.mbta.com/stops/place-mispk,level_in_street,0,place-mispk,2,Boston,,,0,,,,,,,,,DOT_ADMIN,2020/05/21 10:32:42+00,DOT_ADMIN,2020/05/21 10:32:42+00
-71.0741099994471,42.4266319997228,645207,70034,70034,Malden Center,Malden Center - Orange Line - Forest Hills,,Forest Hills,42.426632,-71.07411,RapidTransit,,https://www.mbta.com/stops/place-mlmnl,level_1_orange_platform,0,place-mlmnl,1,Malden,,,1,,,,,,,,,DOT_ADMIN,2020/05/21 10:32:42+00,DOT_ADMIN,2020/05/21 10:32:42+00
-71.0741099994471,42.4266319997228,645208,70035,70035,Malden Center,Malden Center - Orange Line - Oak Grove,,Oak Grove,42.426632,-71.07411,RapidTransit,,https://www.mbta.com/stops/place-mlmnl,level_1_orange_platform,0,place-mlmnl,1,Malden,,,1,,,,,,,,,DOT_ADMIN,2020/05/21 10:32:42+00,DOT_ADMIN,2020/05/21 10:32:42+00
-71.0739830003918,42.4268140004286,645210,door-mlmnl-commercial,,"Malden Center - Commercial St, Malden Government Center","Malden Center - Commercial St, Malden Government Center",,,42.426814,-71.073983,,,,level_ground,2,place-mlmnl,2,Malden,,,,,,,,,,,,DOT_ADMIN,2020/05/21 10:32:42+00,DOT_ADMIN,2020/05/21 10:32:42+00
-71.0743550001986,42.4268799998945,645211,door-mlmnl-pleasant,,"Malden Center - Summer St, Pleasant St","Malden Center - Summer St, Pleasant St",,,42.42688,-71.074355,,,,level_ground,2,place-mlmnl,1,Malden,,,,,,,,,,,,DOT_ADMIN,2020/05/21 10:32:42+00,DOT_ADMIN,2020/05/21 10:32:42+00
-71.0739870000397,42.4268900002885,645212,door-mlmnl-ramp,,"Malden Center - Commercial St, Malden Government Center (ramp)","Malden Center - Commercial St, Malden Government Center (ramp)",,,42.42689,-71.073987,,,,level_ground,2,place-mlmnl,1,Malden,,,,,,,,,,,,DOT_ADMIN,2020/05/21 10:32:42+00,DOT_ADMIN,2020/05/21 10:32:42+00
-71.0395300005714,42.3691190004329,645216,70045,70045,Maverick,Maverick - Blue Line - Bowdoin,,Bowdoin,42.369119,-71.03953,RapidTransit,,https://www.mbta.com/stops/place-mvbcl,level_-1_platform,0,place-mvbcl,1,Boston,,,1,,,,,,,,,DOT_ADMIN,2020/05/21 10:32:42+00,DOT_ADMIN,2020/05/21 10:32:42+00
-71.0395300005714,42.3691190004329,645217,70046,70046,Maverick,Maverick - Blue Line - Wonderland,,Wonderland,42.369119,-71.03953,RapidTransit,,https://www.mbta.com/stops/place-mvbcl,level_-1_platform,0,place-mvbcl,1,Boston,,,1,,,,,,,,,DOT_ADMIN,2020/05/21 10:32:42+00,DOT_ADMIN,2020/05/21 10:32:42+00
-71.0405389998847,42.3682750001166,645218,door-mvbcl-lewis,,Maverick - Lewis Mall,Maverick - Lewis Mall,,,42.368275,-71.040539,,,,level_ground,2,place-mvbcl,1,Boston,,,,,,,,,,,,DOT_ADMIN,2020/05/21 10:32:42+00,DOT_ADMIN,2020/05/21 10:32:42+00
-71.0394999995645,42.3691930002792,645219,door-mvbcl-square,,"Maverick - Sumner St, Maverick Square","Maverick - Sumner St, Maverick Square",,,42.369193,-71.0395,,,,level_in_street,2,place-mvbcl,1,Boston,,,,,,,,,,,,DOT_ADMIN,2020/05/21 10:32:42+00,DOT_ADMIN,2020/05/21 10:32:42+00
-71.2060629999502,42.3216870003245,645221,70168,70168,Newton Highlands,Newton Highlands - Green Line - Park Street & North,,Park Street & North,42.321687,-71.206063,RapidTransit,,https://www.mbta.com/stops/place-newtn,level_ground,0,place-newtn,1,Newton,,,0,,,,,,,,,DOT_ADMIN,2020/05/21 10:32:42+00,DOT_ADMIN,2020/05/21 10:32:42+00
-71.2061180002214,42.3217340002251,645222,70169,70169,Newton Highlands,Newton Highlands - Green Line - (D) Riverside,,Riverside,42.321734,-71.206118,RapidTransit,,https://www.mbta.com/stops/place-newtn,level_ground,0,place-newtn,1,Newton,,,0,,,,,,,,,DOT_ADMIN,2020/05/21 10:32:42+00,DOT_ADMIN,2020/05/21 10:32:42+00
-71.2043299997513,42.3234680002666,645223,door-newtn-hyde,,Newton Highlands - Hyde St,Newton Highlands - Hyde St,,,42.323468,-71.20433,,,,level_1_in_street,2,place-newtn,2,Newton,,,,,,,,,,,,DOT_ADMIN,2020/05/21 10:32:42+00,DOT_ADMIN,2020/05/21 10:32:42+00
-71.2056430000974,42.3226680000343,645224,door-newtn-lake,,Newton Highlands - Lake Ave,Newton Highlands - Lake Ave,,,42.322668,-71.205643,,,,level_1_in_street,2,place-newtn,1,Newton,,,,,,,,,,,,DOT_ADMIN,2020/05/21 10:32:42+00,DOT_ADMIN,2020/05/21 10:32:42+00
-71.2055580003837,42.322593999866,645225,door-newtn-station,,Newton Highlands - Station Ave,Newton Highlands - Station Ave,,,42.322594,-71.205558,,,,level_1_in_street,2,place-newtn,1,Newton,,,,,,,,,,,,DOT_ADMIN,2020/05/21 10:32:42+00,DOT_ADMIN,2020/05/21 10:32:42+00
-71.2062320001326,42.3219680000518,645226,door-newtn-walnut,,Newton Highlands - Walnut St,Newton Highlands - Walnut St,,,42.321968,-71.206232,,,,level_1_in_street,2,place-newtn,1,Newton,,,,,,,,,,,,DOT_ADMIN,2020/05/21 10:32:42+00,DOT_ADMIN,2020/05/21 10:32:42+00
-71.1923879996336,42.3293380004081,645228,70170,70170,Newton Centre,Newton Centre - Green Line - Park Street & North,,Park Street & North,42.329338,-71.192388,RapidTransit,,https://www.mbta.com/stops/place-newto,level_ground,0,place-newto,1,Newton,,,0,,,,,,,,,DOT_ADMIN,2020/05/21 10:32:42+00,DOT_ADMIN,2020/05/21 10:32:42+00
-71.1924300005672,42.329392999893,645229,70171,70171,Newton Centre,Newton Centre - Green Line - (D) Riverside,,Riverside,42.329393,-71.19243,RapidTransit,,https://www.mbta.com/stops/place-newto,level_ground,0,place-newto,1,Newton,,,0,,,,,,,,,DOT_ADMIN,2020/05/21 10:32:42+00,DOT_ADMIN,2020/05/21 10:32:42+00
-71.1922960000292,42.3293489997094,645230,door-newto-braeland,,"Newton Centre - Braeland Ave, Langley Rd","Newton Centre - Braeland Ave, Langley Rd",,,42.329349,-71.192296,,,,level_1_in_street,2,place-newto,2,Newton,,,,,,,,,,,,DOT_ADMIN,2020/05/21 10:32:42+00,DOT_ADMIN,2020/05/21 10:32:42+00
-71.1933769999213,42.3292400001393,645231,door-newto-herrick,,"Newton Centre - Union St, Herrick Rd","Newton Centre - Union St, Herrick Rd",,,42.32924,-71.193377,,,,level_1_in_street,2,place-newto,2,Newton,,,,,,,,,,,,DOT_ADMIN,2020/05/21 10:32:42+00,DOT_ADMIN,2020/05/21 10:32:42+00
-71.1918409999427,42.3297400004495,645232,door-newto-langley,,Newton Centre - Langley Rd,Newton Centre - Langley Rd,,,42.32974,-71.191841,,,,level_1_in_street,2,place-newto,1,Newton,,,,,,,,,,,,DOT_ADMIN,2020/05/21 10:32:42+00,DOT_ADMIN,2020/05/21 10:32:42+00
-71.1932690002024,42.3293570000319,645233,door-newto-unionr,,Newton Centre - Union St (Ramp),Newton Centre - Union St (Ramp),,,42.329357,-71.193269,,,,level_1_in_street,2,place-newto,1,Newton,,,,,,,,,,,,DOT_ADMIN,2020/05/21 10:32:42+00,DOT_ADMIN,2020/05/21 10:32:42+00
-71.1926900003281,42.3295039997216,645234,door-newto-unions,,Newton Centre - Union St (Stairs),Newton Centre - Union St (Stairs),,,42.329504,-71.19269,,,,level_1_in_street,2,place-newto,2,Newton,,,,,,,,,,,,DOT_ADMIN,2020/05/21 10:32:42+00,DOT_ADMIN,2020/05/21 10:32:42+00
-71.0612899995415,42.3655770003071,645236,70026,70026,North Station,North Station - Orange Line - Forest Hills,,Forest Hills,42.365577,-71.06129,RapidTransit,,https://www.mbta.com/stops/place-north,level_-2_low_platform,0,place-north,1,Boston,,,1,,,,,,,,,DOT_ADMIN,2020/05/21 10:32:42+00,DOT_ADMIN,2020/05/21 10:32:42+00
-71.0612899995415,42.3655770003071,645237,70027,70027,North Station,North Station - Orange Line - Oak Grove,,Oak Grove,42.365577,-71.06129,RapidTransit,,https://www.mbta.com/stops/place-north,level_-2_low_platform,0,place-north,1,Boston,,,1,,,,,,,,,DOT_ADMIN,2020/05/21 10:32:42+00,DOT_ADMIN,2020/05/21 10:32:42+00
-71.0612899995415,42.3655770003071,645238,70205,70205,North Station,North Station - Green Line - Lechmere,,Lechmere,42.365577,-71.06129,RapidTransit,,https://www.mbta.com/stops/place-north,level_-1_lechmere_platform,0,place-north,1,Boston,,,0,,,,,,,,,DOT_ADMIN,2020/05/21 10:32:42+00,DOT_ADMIN,2020/05/21 10:32:42+00
-71.0612899995415,42.3655770003071,645239,70206,70206,North Station,North Station - Green Line - Copley & West,,Copley & West,42.365577,-71.06129,RapidTransit,,https://www.mbta.com/stops/place-north,level_-2_low_platform,0,place-north,1,Boston,,,0,,,,,,,,,DOT_ADMIN,2020/05/21 10:32:42+00,DOT_ADMIN,2020/05/21 10:32:42+00
-71.0604719998682,42.3656389997821,645251,door-north-causewaye,,North Station - Causeway St (Elevator),North Station - Causeway St (Elevator),,,42.365639,-71.060472,,,,level_in_street,2,place-north,1,Boston,,,,,,,,,,,,DOT_ADMIN,2020/05/21 10:32:42+00,DOT_ADMIN,2020/05/21 10:32:42+00
-71.0604899994539,42.3654959999971,645252,door-north-causeways,,"North Station - Causeway St, Haverhill St","North Station - Causeway St, Haverhill St",,,42.365496,-71.06049,,,,level_in_street,2,place-north,2,Boston,,,,,,,,,,,,DOT_ADMIN,2020/05/21 10:32:42+00,DOT_ADMIN,2020/05/21 10:32:42+00
-71.0617590005839,42.3659750000776,645253,door-north-crcanal,,"North Station - Causeway St, Canal St","North Station - Causeway St, Canal St",,,42.365975,-71.061759,,,,level_in_street,2,place-north,1,Boston,,,,,,,,,,,,DOT_ADMIN,2020/05/21 10:32:42+00,DOT_ADMIN,2020/05/21 10:32:42+00
-71.061324000131,42.366403999631,645254,door-north-crcauseway,,North Station - Causeway St (East),North Station - Causeway St (East),,,42.366404,-71.061324,,,,level_in_street,2,place-north,1,Boston,,,,,,,,,,,,DOT_ADMIN,2020/05/21 10:32:42+00,DOT_ADMIN,2020/05/21 10:32:42+00
-71.0626839995366,42.3657380003933,645255,door-north-crnashua,,"North Station - Causeway St (West), Nashua St","North Station - Causeway St (West), Nashua St",,,42.365738,-71.062684,,,,level_in_street,2,place-north,1,Boston,,,,,,,,,,,,DOT_ADMIN,2020/05/21 10:32:42+00,DOT_ADMIN,2020/05/21 10:32:42+00
-71.060892,42.3658330002803,645256,door-north-tdgarden,,North Station - TD Garden passageway (Elevator),North Station - TD Garden passageway (Elevator),,,42.365833,-71.060892,,,,level_in_street,2,place-north,1,Boston,,,,,,,,,,,,DOT_ADMIN,2020/05/21 10:32:42+00,DOT_ADMIN,2020/05/21 10:32:42+00
-71.0595409998829,42.3646520000315,645257,door-north-valenti,,North Station - Valenti Way,North Station - Valenti Way,,,42.364652,-71.059541,,,,level_in_street,2,place-north,1,Boston,,,,,,,,,,,,DOT_ADMIN,2020/05/21 10:32:42+00,DOT_ADMIN,2020/05/21 10:32:42+00
-71.029582999597,42.2752749999638,645260,70097,70097,North Quincy,North Quincy - Red Line - Braintree,2,Braintree,42.275275,-71.029583,RapidTransit,,https://www.mbta.com/stops/place-nqncy,level_0_platform,0,place-nqncy,1,Quincy,,,1,,,,,,,,,DOT_ADMIN,2020/05/21 10:32:42+00,DOT_ADMIN,2020/05/21 10:32:42+00
-71.029582999597,42.2752749999638,645261,70098,70098,North Quincy,North Quincy - Red Line - Alewife,1,Alewife,42.275275,-71.029583,RapidTransit,,https://www.mbta.com/stops/place-nqncy,level_0_platform,0,place-nqncy,1,Quincy,,,1,,,,,,,,,DOT_ADMIN,2020/05/21 10:32:42+00,DOT_ADMIN,2020/05/21 10:32:42+00
-71.0309220003931,42.2766309996554,645262,door-nqncy-hancock,,North Quincy - Hancock St,North Quincy - Hancock St,,,42.276631,-71.030922,,,,level_ground,2,place-nqncy,1,Quincy,,,,,,,,,,,,DOT_ADMIN,2020/05/21 10:32:42+00,DOT_ADMIN,2020/05/21 10:32:42+00
-71.0311840004114,42.2764830000102,645263,door-nqncy-newport,,North Quincy - Newport Ave Extension,North Quincy - Newport Ave Extension,,,42.276483,-71.031184,,,,level_ground,2,place-nqncy,1,Quincy,,,,,,,,,,,,DOT_ADMIN,2020/05/21 10:32:42+00,DOT_ADMIN,2020/05/21 10:32:42+00
-71.0292430004384,42.2752100001103,645264,door-nqncy-squantum,,North Quincy - West Squantum St,North Quincy - West Squantum St,,,42.27521,-71.029243,,,,level_1_ground,2,place-nqncy,1,Quincy,,,,,,,,,,,,DOT_ADMIN,2020/05/21 10:32:42+00,DOT_ADMIN,2020/05/21 10:32:42+00
-71.0902099998963,42.3398970003506,645266,70243,70243,Northeastern University,Northeastern University - Green Line - (E) Heath Street,,Heath Street,42.339897,-71.09021,RapidTransit,,https://www.mbta.com/stops/place-nuniv,level_median,0,place-nuniv,1,Boston,,,0,,,,,,,,,DOT_ADMIN,2020/05/21 10:32:42+00,DOT_ADMIN,2020/05/21 10:32:42+00
-71.0892000002903,42.3402220001983,645267,70244,70244,Northeastern University,Northeastern University - Green Line - Park Street & North,,Park Street & North,42.340222,-71.0892,RapidTransit,,https://www.mbta.com/stops/place-nuniv,level_median,0,place-nuniv,1,Boston,,,0,,,,,,,,,DOT_ADMIN,2020/05/21 10:32:42+00,DOT_ADMIN,2020/05/21 10:32:42+00
-71.0710969995215,42.4366799997673,645269,70036,70036,Oak Grove,Oak Grove - Orange Line,,Orange Line,42.43668,-71.071097,RapidTransit,,https://www.mbta.com/stops/place-ogmnl,level_0_platform,0,place-ogmnl,1,Malden,,,1,,,,,,,,,DOT_ADMIN,2020/05/21 10:32:42+00,DOT_ADMIN,2020/05/21 10:32:42+00
-71.0707060002394,42.4375010002057,645271,Oak Grove-01,,Oak Grove,Oak Grove - Orange Line - Track 1,1,Orange Line - Track 1,42.437501,-71.070706,RapidTransit,,https://www.mbta.com/stops/place-ogmnl,level_0_platform,0,place-ogmnl,1,Malden,,,1,,,,,,,,,DOT_ADMIN,2020/05/21 10:32:42+00,DOT_ADMIN,2020/05/21 10:32:42+00
-71.0707060002394,42.4375010002057,645272,Oak Grove-02,,Oak Grove,Oak Grove - Orange Line - Track 2,2,Orange Line - Track 2,42.437501,-71.070706,RapidTransit,,https://www.mbta.com/stops/place-ogmnl,level_0_platform,0,place-ogmnl,1,Malden,,,1,,,,,,,,,DOT_ADMIN,2020/05/21 10:32:42+00,DOT_ADMIN,2020/05/21 10:32:42+00
-71.0703429998227,42.4368590000211,645273,door-ogmnl-banks,,Oak Grove - Banks Place,Oak Grove - Banks Place,,,42.436859,-71.070343,,,,level_ground,2,place-ogmnl,1,Malden,,,,,,,,,,,,DOT_ADMIN,2020/05/21 10:32:42+00,DOT_ADMIN,2020/05/21 10:32:42+00
-71.071151999635,42.436676000336,645274,door-ogmnl-wash,,Oak Grove - Washington St,Oak Grove - Washington St,,,42.436676,-71.071152,,,,level_in_street,2,place-ogmnl,2,Malden,,,,,,,,,,,,DOT_ADMIN,2020/05/21 10:32:42+00,DOT_ADMIN,2020/05/21 10:32:42+00
-71.0047359995284,42.3868670003091,645279,70051,70051,Orient Heights,Orient Heights - Blue Line - Bowdoin,,Bowdoin,42.386867,-71.004736,RapidTransit,,https://www.mbta.com/stops/place-orhte,level_0_platform,0,place-orhte,1,Boston,,,1,,,,,,,,,DOT_ADMIN,2020/05/21 10:32:42+00,DOT_ADMIN,2020/05/21 10:32:42+00
-71.0047359995284,42.3868670003091,645280,70052,70052,Orient Heights,Orient Heights - Blue Line - Wonderland,,Wonderland,42.386867,-71.004736,RapidTransit,,https://www.mbta.com/stops/place-orhte,level_0_platform,0,place-orhte,1,Boston,,,1,,,,,,,,,DOT_ADMIN,2020/05/21 10:32:42+00,DOT_ADMIN,2020/05/21 10:32:42+00
-71.004663999666,42.3870800001216,645281,door-orhte-benning,,Orient Heights - Bennington St,Orient Heights - Bennington St,,,42.38708,-71.004664,,,,level_ground,2,place-orhte,1,Boston,,,,,,,,,,,,DOT_ADMIN,2020/05/21 10:32:42+00,DOT_ADMIN,2020/05/21 10:32:42+00
-71.0043640004601,42.3868619998632,645282,door-orhte-saratoga,,"Orient Heights - Saratoga St, Barnes Ave","Orient Heights - Saratoga St, Barnes Ave",,,42.386862,-71.004364,,,,level_ground,2,place-orhte,1,Boston,,,,,,,,,,,,DOT_ADMIN,2020/05/21 10:32:42+00,DOT_ADMIN,2020/05/21 10:32:42+00
-71.0624240000845,42.3563949996414,645284,70075,70075,Park Street,Park Street - Red Line - Ashmont/Braintree,5,Ashmont/Braintree,42.356395,-71.062424,RapidTransit,,https://www.mbta.com/stops/place-pktrm,level_-2_red_platform,0,place-pktrm,1,Boston,,,1,,,,,,,,,DOT_ADMIN,2020/05/21 10:32:42+00,DOT_ADMIN,2020/05/21 10:32:42+00
-71.0624240000845,42.3563949996414,645285,70076,70076,Park Street,Park Street - Red Line - Alewife,6,Alewife,42.356395,-71.062424,RapidTransit,,https://www.mbta.com/stops/place-pktrm,level_-2_red_platform,0,place-pktrm,1,Boston,,,1,,,,,,,,,DOT_ADMIN,2020/05/21 10:32:42+00,DOT_ADMIN,2020/05/21 10:32:42+00
-71.0624240000845,42.3563949996414,645286,70196,70196,Park Street,Park Street - Green Line - (B) Boston College,2,Boston College,42.356395,-71.062424,RapidTransit,,https://www.mbta.com/stops/place-pktrm,level_-1_green_platform,0,place-pktrm,1,Boston,,,0,,,,,,,,,DOT_ADMIN,2020/05/21 10:32:42+00,DOT_ADMIN,2020/05/21 10:32:42+00
-71.0624240000845,42.3563949996414,645287,70197,70197,Park Street,Park Street - Green Line - (C) Cleveland Circle,1,Cleveland Circle,42.356395,-71.062424,RapidTransit,,https://www.mbta.com/stops/place-pktrm,level_-1_green_platform,0,place-pktrm,1,Boston,,,0,,,,,,,,,DOT_ADMIN,2020/05/21 10:32:42+00,DOT_ADMIN,2020/05/21 10:32:42+00
-71.0624240000845,42.3563949996414,645288,70198,70198,Park Street,Park Street - Green Line - (D) Riverside,2,Riverside,42.356395,-71.062424,RapidTransit,,https://www.mbta.com/stops/place-pktrm,level_-1_green_platform,0,place-pktrm,1,Boston,,,0,,,,,,,,,DOT_ADMIN,2020/05/21 10:32:42+00,DOT_ADMIN,2020/05/21 10:32:42+00
-71.0624240000845,42.3563949996414,645289,70199,70199,Park Street,Park Street - Green Line - (E) Heath Street,1,Heath Street,42.356395,-71.062424,RapidTransit,,https://www.mbta.com/stops/place-pktrm,level_-1_green_platform,0,place-pktrm,1,Boston,,,0,,,,,,,,,DOT_ADMIN,2020/05/21 10:32:42+00,DOT_ADMIN,2020/05/21 10:32:42+00
-71.0624240000845,42.3563949996414,645290,70200,70200,Park Street,Park Street - Green Line - Government Center & North,4,Government Center & North,42.356395,-71.062424,RapidTransit,,https://www.mbta.com/stops/place-pktrm,level_-1_green_platform,0,place-pktrm,1,Boston,,,0,,,,,,,,,DOT_ADMIN,2020/05/21 10:32:42+00,DOT_ADMIN,2020/05/21 10:32:42+00
-71.0624240000845,42.3563949996414,645291,71199,71199,Park Street,Park Street - Green Line - Drop-off Only,3,Drop-off Only,42.356395,-71.062424,RapidTransit,,https://www.mbta.com/stops/place-pktrm,level_-1_green_platform,0,place-pktrm,1,Boston,,,0,,,,,,,,,DOT_ADMIN,2020/05/21 10:32:42+00,DOT_ADMIN,2020/05/21 10:32:42+00
-71.0622390001298,42.3561720002216,645292,door-pktrm-elevatoreb,,Park Street - Tremont St to Lobby (Elevator 804),Park Street - Tremont St to Lobby (Elevator 804),,,42.356172,-71.062239,,,,level_in_street,2,place-pktrm,1,Boston,,,,,,,,,,,,DOT_ADMIN,2020/05/21 10:32:42+00,DOT_ADMIN,2020/05/21 10:32:42+00
-71.062674999863,42.3563310002099,645293,door-pktrm-elevatorwb,,"Park Street - Elevator, Tremont St","Park Street - Elevator, Tremont St",,,42.356331,-71.062675,,,,level_in_street,2,place-pktrm,1,Boston,,,,,,,,,,,,DOT_ADMIN,2020/05/21 10:32:42+00,DOT_ADMIN,2020/05/21 10:32:42+00
-71.0619040005973,42.3565039996773,645294,door-pktrm-exitalewife,,Park Street - Escalator to Tremont St (North),Park Street - Escalator to Tremont St (North),,,42.356504,-71.061904,,,,level_in_street,2,place-pktrm,2,Boston,,,,,,,,,,,,DOT_ADMIN,2020/05/21 10:32:42+00,DOT_ADMIN,2020/05/21 10:32:42+00
-71.0624270001557,42.3559760003029,645295,door-pktrm-exitashbrain,,Park Street - Escalator to Tremont St (South),Park Street - Escalator to Tremont St (South),,,42.355976,-71.062427,,,,level_in_street,2,place-pktrm,2,Boston,,,,,,,,,,,,DOT_ADMIN,2020/05/21 10:32:42+00,DOT_ADMIN,2020/05/21 10:32:42+00
-71.0623210002205,42.356370000034,645296,door-pktrm-tremonte,,"Park Street - Tremont St, Boston Common","Park Street - Tremont St, Boston Common",,,42.35637,-71.062321,,,,level_in_street,2,place-pktrm,2,Boston,,,,,,,,,,,,DOT_ADMIN,2020/05/21 10:32:42+00,DOT_ADMIN,2020/05/21 10:32:42+00
-71.0625309998948,42.3564900002917,645297,door-pktrm-tremontw,,"Park Street - Boston Common, Tremont St","Park Street - Boston Common, Tremont St",,,42.35649,-71.062531,,,,level_in_street,2,place-pktrm,2,Boston,,,,,,,,,,,,DOT_ADMIN,2020/05/21 10:32:42+00,DOT_ADMIN,2020/05/21 10:32:42+00
-71.0623339998778,42.3560690002882,645298,door-pktrm-tremstair,,Park Street - Tremont St,Park Street - Tremont St,,,42.356069,-71.062334,,,,level_in_street,2,place-pktrm,2,Boston,,,,,,,,,,,,DOT_ADMIN,2020/05/21 10:32:42+00,DOT_ADMIN,2020/05/21 10:32:42+00
-71.0634019996807,42.3554560003524,645299,door-pktrm-west,,Park Street - Boston Common,Park Street - Boston Common,,,42.355456,-71.063402,,,,level_in_street,2,place-pktrm,2,Boston,,,,,,,,,,,,DOT_ADMIN,2020/05/21 10:32:42+00,DOT_ADMIN,2020/05/21 10:32:42+00
-71.0620080005802,42.3563970000984,645300,door-pktrm-winter,,"Park Street - Tremont St, Winter St","Park Street - Tremont St, Winter St",,,42.356397,-71.062008,,,,level_in_street,2,place-pktrm,2,Boston,,,,,,,,,,,,DOT_ADMIN,2020/05/21 10:32:42+00,DOT_ADMIN,2020/05/21 10:32:42+00
-71.1187529996106,42.3514450003852,645302,70138,70138,Pleasant Street,Pleasant Street - Green Line - Park Street & North,,Park Street & North,42.351445,-71.118753,RapidTransit,,https://www.mbta.com/stops/place-plsgr,level_median,0,place-plsgr,2,Boston,,,0,,,,,,,,,DOT_ADMIN,2020/05/21 10:32:42+00,DOT_ADMIN,2020/05/21 10:32:42+00
-71.1192810005241,42.3515660001868,645303,70139,70139,Pleasant Street,Pleasant Street - Green Line - (B) Boston College,,Boston College,42.351566,-71.119281,RapidTransit,,https://www.mbta.com/stops/place-plsgr,level_median,0,place-plsgr,2,Boston,,,0,,,,,,,,,DOT_ADMIN,2020/05/21 10:32:42+00,DOT_ADMIN,2020/05/21 10:32:42+00
-71.1191490004468,42.388400000415,645305,70065,70065,Porter,Porter - Red Line - Ashmont/Braintree,,Ashmont/Braintree,42.3884,-71.119149,RapidTransit,,https://www.mbta.com/stops/place-portr,level_-3_southbound_platform,0,place-portr,1,Cambridge,,,1,,,,,,,,,DOT_ADMIN,2020/05/21 10:32:42+00,DOT_ADMIN,2020/05/21 10:32:42+00
-71.1191490004468,42.388400000415,645306,70066,70066,Porter,Porter - Red Line - Alewife,,Alewife,42.3884,-71.119149,RapidTransit,,https://www.mbta.com/stops/place-portr,level_-4_alewife_platform,0,place-portr,1,Cambridge,,,1,,,,,,,,,DOT_ADMIN,2020/05/21 10:32:42+00,DOT_ADMIN,2020/05/21 10:32:42+00
-71.11975199959,42.3886039999122,645308,door-portr-cracross,,"Porter - Massachusetts Ave (West), Buses","Porter - Massachusetts Ave (West), Buses",,,42.388604,-71.119752,,,,level_in_street,2,place-portr,2,Cambridge,,,,,,,,,,,,DOT_ADMIN,2020/05/21 10:32:42+00,DOT_ADMIN,2020/05/21 10:32:42+00
-71.1190990005159,42.3882540000914,645309,door-portr-crtransfer,,"Porter - Massachusetts Ave (East), Buses","Porter - Massachusetts Ave (East), Buses",,,42.388254,-71.119099,,,,level_in_street,2,place-portr,2,Cambridge,,,,,,,,,,,,DOT_ADMIN,2020/05/21 10:32:42+00,DOT_ADMIN,2020/05/21 10:32:42+00
-71.118904999498,42.388330999791,645310,door-portr-elevators,,"Porter - Somerville Ave, Massachusetts Ave (Elevator)","Porter - Somerville Ave, Massachusetts Ave (Elevator)",,,42.388331,-71.118905,,,,level_in_street,2,place-portr,1,Cambridge,,,,,,,,,,,,DOT_ADMIN,2020/05/21 10:32:42+00,DOT_ADMIN,2020/05/21 10:32:42+00
-71.11921200022,42.388474999816,645311,door-portr-escal,,"Porter - Somerville Ave, Massachusetts Ave","Porter - Somerville Ave, Massachusetts Ave",,,42.388475,-71.119212,,,,level_in_street,2,place-portr,2,Cambridge,,,,,,,,,,,,DOT_ADMIN,2020/05/21 10:32:42+00,DOT_ADMIN,2020/05/21 10:32:42+00
-71.0816960000406,42.3455700002009,645313,70239,70239,Prudential,Prudential - Green Line - (E) Heath Street,,Heath Street,42.34557,-71.081696,RapidTransit,,https://www.mbta.com/stops/place-prmnl,level_-2_platform,0,place-prmnl,1,Boston,,,0,,,,,,,,,DOT_ADMIN,2020/05/21 10:32:42+00,DOT_ADMIN,2020/05/21 10:32:42+00
-71.0816960000406,42.3455700002009,645314,70240,70240,Prudential,Prudential - Green Line - Park Street & North,,Park Street & North,42.34557,-71.081696,RapidTransit,,https://www.mbta.com/stops/place-prmnl,level_-2_platform,0,place-prmnl,1,Boston,,,0,,,,,,,,,DOT_ADMIN,2020/05/21 10:32:42+00,DOT_ADMIN,2020/05/21 10:32:42+00
-71.0816089995194,42.3457909997701,645315,door-prmnl-huntington,,Prudential - Huntington Ave,Prudential - Huntington Ave,,,42.345791,-71.081609,,,,level_in_street,2,place-prmnl,2,Boston,,,,,,,,,,,,DOT_ADMIN,2020/05/21 10:32:42+00,DOT_ADMIN,2020/05/21 10:32:42+00
-71.0812230002916,42.3456320002428,645316,door-prmnl-prudential,,Prudential - Prudential Center,Prudential - Prudential Center,,,42.345632,-71.081223,,,,level_0_building,2,place-prmnl,1,Boston,,,,,,,,,,,,DOT_ADMIN,2020/05/21 10:32:42+00,DOT_ADMIN,2020/05/21 10:32:42+00
-71.0071530001561,42.2333910003985,645318,70103,70103,Quincy Adams,Quincy Adams - Red Line - Braintree,,Braintree,42.233391,-71.007153,RapidTransit,,https://www.mbta.com/stops/place-qamnl,level_1_platform,0,place-qamnl,1,Quincy,,,1,,,,,,,,,DOT_ADMIN,2020/05/21 10:32:42+00,DOT_ADMIN,2020/05/21 10:32:42+00
-71.0071530001561,42.2333910003985,645319,70104,70104,Quincy Adams,Quincy Adams - Red Line - Alewife,,Alewife,42.233391,-71.007153,RapidTransit,,https://www.mbta.com/stops/place-qamnl,level_1_platform,0,place-qamnl,1,Quincy,,,1,,,,,,,,,DOT_ADMIN,2020/05/21 10:32:42+00,DOT_ADMIN,2020/05/21 10:32:42+00
-71.0073629994117,42.2333170000916,645320,door-qamnl-burgin,,Quincy Adams - Burgin Parkway,Quincy Adams - Burgin Parkway,,,42.233317,-71.007363,,,,level_ground,2,place-qamnl,1,Quincy,,,,,,,,,,,,DOT_ADMIN,2020/05/21 10:32:42+00,DOT_ADMIN,2020/05/21 10:32:42+00
-71.0061369996947,42.2334360002747,645321,door-qamnl-indep,,Quincy Adams - Independence Avenue,Quincy Adams - Independence Avenue,,,42.233436,-71.006137,,,,level_independence_ave,2,place-qamnl,1,Quincy,,,,,,,,,,,,DOT_ADMIN,2020/05/21 10:32:42+00,DOT_ADMIN,2020/05/21 10:32:42+00
-71.0074250004164,42.2327050003685,645322,door-qamnl-pickup,,Quincy Adams - Pick-up/Drop-off,Quincy Adams - Pick-up/Drop-off,,,42.232705,-71.007425,,,,level_ground,2,place-qamnl,1,Quincy,,,,,,,,,,,,DOT_ADMIN,2020/05/21 10:32:42+00,DOT_ADMIN,2020/05/21 10:32:42+00
-71.0054089995668,42.2518089999723,645329,70101,70101,Quincy Center,Quincy Center - Red Line - Braintree,2,Braintree,42.251809,-71.005409,RapidTransit,,https://www.mbta.com/stops/place-qnctr,level_-1_red_platform,0,place-qnctr,1,Quincy,,,1,,,,,,,,,DOT_ADMIN,2020/05/21 10:32:42+00,DOT_ADMIN,2020/05/21 10:32:42+00
-71.0054089995668,42.2518089999723,645330,70102,70102,Quincy Center,Quincy Center - Red Line - Alewife,1,Alewife,42.251809,-71.005409,RapidTransit,,https://www.mbta.com/stops/place-qnctr,level_-1_red_platform,0,place-qnctr,1,Quincy,,,1,,,,,,,,,DOT_ADMIN,2020/05/21 10:32:42+00,DOT_ADMIN,2020/05/21 10:32:42+00
-71.0055080002047,42.2514029995803,645332,door-qnctr-burgin,,Quincy Center - Burgin Parkway,Quincy Center - Burgin Parkway,,,42.251403,-71.005508,,,,level_1_in_street,2,place-qnctr,2,Quincy,,,,,,,,,,,,DOT_ADMIN,2020/05/21 10:32:42+00,DOT_ADMIN,2020/05/21 10:32:42+00
-71.0050030003652,42.251585999935,645333,door-qnctr-busway,,Quincy Center - Hancock St,Quincy Center - Hancock St,,,42.251586,-71.005003,,,,level_ground,2,place-qnctr,1,Quincy,,,,,,,,,,,,DOT_ADMIN,2020/05/21 10:32:42+00,DOT_ADMIN,2020/05/21 10:32:42+00
-70.9925330001037,42.4078429995628,645335,70057,70057,Revere Beach,Revere Beach - Blue Line - Bowdoin,1,Bowdoin,42.407843,-70.992533,RapidTransit,,https://www.mbta.com/stops/place-rbmnl,level_-1_platform,0,place-rbmnl,1,Revere,,,1,,,,,,,,,DOT_ADMIN,2020/05/21 10:32:42+00,DOT_ADMIN,2020/05/21 10:32:42+00
-70.9925330001037,42.4078429995628,645336,70058,70058,Revere Beach,Revere Beach - Blue Line - Wonderland,2,Wonderland,42.407843,-70.992533,RapidTransit,,https://www.mbta.com/stops/place-rbmnl,level_-1_platform,0,place-rbmnl,1,Revere,,,1,,,,,,,,,DOT_ADMIN,2020/05/21 10:32:42+00,DOT_ADMIN,2020/05/21 10:32:42+00
-70.992552999881,42.4084300002167,645337,door-rbmnl-beach,,Revere Beach - Beach St,Revere Beach - Beach St,,,42.40843,-70.992553,,,,level_in_street,2,place-rbmnl,2,Revere,,,,,,,,,,,,DOT_ADMIN,2020/05/21 10:32:42+00,DOT_ADMIN,2020/05/21 10:32:42+00
-70.9926330003523,42.4078199997194,645338,door-rbmnl-main,,"Revere Beach - Ocean Ave, Shirley Ave","Revere Beach - Ocean Ave, Shirley Ave",,,42.40782,-70.992633,,,,level_in_street,2,place-rbmnl,1,Revere,,,,,,,,,,,,DOT_ADMIN,2020/05/21 10:32:42+00,DOT_ADMIN,2020/05/21 10:32:42+00
-70.9921099996875,42.4078999997571,645339,door-rbmnl-ocean,,Revere Beach - 300 Ocean Ave,Revere Beach - 300 Ocean Ave,,,42.4079,-70.99211,,,,level_-0.5_building,2,place-rbmnl,2,Revere,,,,,,,,,,,,DOT_ADMIN,2020/05/21 10:32:42+00,DOT_ADMIN,2020/05/21 10:32:42+00
-70.9923629994526,42.4073309999457,645340,door-rbmnl-shirley,,Revere Beach - Shirley Ave,Revere Beach - Shirley Ave,,,42.407331,-70.992363,,,,level_in_street,2,place-rbmnl,2,Revere,,,,,,,,,,,,DOT_ADMIN,2020/05/21 10:32:42+00,DOT_ADMIN,2020/05/21 10:32:42+00
-71.0954509996774,42.3313969997185,645342,70008,70008,Roxbury Crossing,Roxbury Crossing - Orange Line - Forest Hills,,Forest Hills,42.331397,-71.095451,RapidTransit,,https://www.mbta.com/stops/place-rcmnl,level_-1_platform,0,place-rcmnl,1,Boston,,,1,,,,,,,,,DOT_ADMIN,2020/05/21 10:32:42+00,DOT_ADMIN,2020/05/21 10:32:42+00
-71.0954509996774,42.3313969997185,645343,70009,70009,Roxbury Crossing,Roxbury Crossing - Orange Line - Oak Grove,,Oak Grove,42.331397,-71.095451,RapidTransit,,https://www.mbta.com/stops/place-rcmnl,level_-1_platform,0,place-rcmnl,1,Boston,,,1,,,,,,,,,DOT_ADMIN,2020/05/21 10:32:42+00,DOT_ADMIN,2020/05/21 10:32:42+00
-71.0954800003893,42.3314149996211,645344,door-rcmnl-tremont,,Roxbury Crossing - Tremont St,Roxbury Crossing - Tremont St,,,42.331415,-71.09548,,,,level_in_street,2,place-rcmnl,1,Boston,,,,,,,,,,,,DOT_ADMIN,2020/05/21 10:32:42+00,DOT_ADMIN,2020/05/21 10:32:42+00
-71.2523849998898,42.3372830002033,645347,70160,70160,Riverside,Riverside - Green Line - Park Street & North,,Park Street & North,42.337283,-71.252385,RapidTransit,,https://www.mbta.com/stops/place-river,level_1_platform,0,place-river,1,Newton,,,0,,,,,,,,,DOT_ADMIN,2020/05/21 10:32:42+00,DOT_ADMIN,2020/05/21 10:32:42+00
-71.2523569997756,42.3373210004154,645348,70161,70161,Riverside,Riverside - Green Line - Exit Only,,Exit Only,42.337321,-71.252357,RapidTransit,,https://www.mbta.com/stops/place-river,level_1_platform,0,place-river,1,Newton,,,0,,,,,,,,,DOT_ADMIN,2020/05/21 10:32:42+00,DOT_ADMIN,2020/05/21 10:32:42+00
-71.2526709994617,42.3372979997041,645349,door-river-main,,Riverside - Main,Riverside - Main,,,42.337298,-71.252671,,,,level_ground,2,place-river,1,Newton,,,,,,,,,,,,DOT_ADMIN,2020/05/21 10:32:42+00,DOT_ADMIN,2020/05/21 10:32:42+00
-71.1490640001564,42.3349159996838,645352,70174,70174,Reservoir,Reservoir - Green Line - Park Street & North,,Park Street & North,42.334916,-71.149064,RapidTransit,,https://www.mbta.com/stops/place-rsmnl,level_-1_platform,0,place-rsmnl,1,Brookline,,,0,,,,,,,,,DOT_ADMIN,2020/05/21 10:32:42+00,DOT_ADMIN,2020/05/21 10:32:42+00
-71.1490789996997,42.3349539999383,645353,70175,70175,Reservoir,Reservoir - Green Line - (D) Riverside,,Riverside,42.334954,-71.149079,RapidTransit,,https://www.mbta.com/stops/place-rsmnl,level_-1_platform,0,place-rsmnl,1,Brookline,,,0,,,,,,,,,DOT_ADMIN,2020/05/21 10:32:42+00,DOT_ADMIN,2020/05/21 10:32:42+00
-71.1486059994511,42.334958000112,645354,door-rsmnl-eramp,,"Reservoir - Chestnut Hill Ave, Cleveland Circle (Ramp)","Reservoir - Chestnut Hill Ave, Cleveland Circle (Ramp)",,,42.334958,-71.148606,,,,level_1_ground,2,place-rsmnl,1,Brookline,,,,,,,,,,,,DOT_ADMIN,2020/05/21 10:32:42+00,DOT_ADMIN,2020/05/21 10:32:42+00
-71.1486949996232,42.3350340000909,645355,door-rsmnl-estairs,,"Reservoir - Chestnut Hill Ave, Buses (Park St & North)","Reservoir - Chestnut Hill Ave, Buses (Park St & North)",,,42.335034,-71.148695,,,,level_1_ground,2,place-rsmnl,2,Brookline,,,,,,,,,,,,DOT_ADMIN,2020/05/21 10:32:42+00,DOT_ADMIN,2020/05/21 10:32:42+00
-71.1498129996026,42.3352629996308,645356,door-rsmnl-wramp,,Reservoir - Cleveland Circle (Ramp),Reservoir - Cleveland Circle (Ramp),,,42.335263,-71.149813,,,,level_1_in_street,2,place-rsmnl,1,Brookline,,,,,,,,,,,,DOT_ADMIN,2020/05/21 10:32:42+00,DOT_ADMIN,2020/05/21 10:32:42+00
-71.1487769996708,42.33513800017,645357,door-rsmnl-wstairs,,"Reservoir - Chestnut Hill Ave, Buses (Riverside)","Reservoir - Chestnut Hill Ave, Buses (Riverside)",,,42.335138,-71.148777,,,,level_1_ground,2,place-rsmnl,2,Brookline,,,,,,,,,,,,DOT_ADMIN,2020/05/21 10:32:42+00,DOT_ADMIN,2020/05/21 10:32:42+00
-71.0889609994864,42.3363770003528,645362,70010,70010,Ruggles,Ruggles - Orange Line - Forest Hills,,Forest Hills,42.336377,-71.088961,RapidTransit,,https://www.mbta.com/stops/place-rugg,level_0_orange_platform,0,place-rugg,1,Boston,,,1,,,,,,,,,DOT_ADMIN,2020/05/21 10:32:42+00,DOT_ADMIN,2020/05/21 10:32:42+00
-71.0889609994864,42.3363770003528,645363,70011,70011,Ruggles,Ruggles - Orange Line - Oak Grove,,Oak Grove,42.336377,-71.088961,RapidTransit,,https://www.mbta.com/stops/place-rugg,level_0_orange_platform,0,place-rugg,1,Boston,,,1,,,,,,,,,DOT_ADMIN,2020/05/21 10:32:42+00,DOT_ADMIN,2020/05/21 10:32:42+00
-71.089194000346,42.3364729995975,645368,door-rugg-buses,,"Ruggles - Columbus Ave, Buses","Ruggles - Columbus Ave, Buses",,,42.336473,-71.089194,,,,level_ground,2,place-rugg,1,Boston,,,,,,,,,,,,DOT_ADMIN,2020/05/21 10:32:42+00,DOT_ADMIN,2020/05/21 10:32:42+00
-71.0889059997713,42.3358730002962,645369,door-rugg-columbus,,"Ruggles - Columbus Ave, Tremont St","Ruggles - Columbus Ave, Tremont St",,,42.335873,-71.088906,,,,level_in_street,2,place-rugg,1,Boston,,,,,,,,,,,,DOT_ADMIN,2020/05/21 10:32:42+00,DOT_ADMIN,2020/05/21 10:32:42+00
-71.0894210002752,42.337010000086,645370,door-rugg-forsyth,,"Ruggles - Northeastern, Forsyth St","Ruggles - Northeastern, Forsyth St",,,42.33701,-71.089421,,,,level_in_street,2,place-rugg,1,Boston,,,,,,,,,,,,DOT_ADMIN,2020/05/21 10:32:42+00,DOT_ADMIN,2020/05/21 10:32:42+00
-71.0903579997633,42.3358909998068,645371,door-rugg-ruggles,,Ruggles - Ruggles St,Ruggles - Ruggles St,,,42.335891,-71.090358,,,,level_1_in_street,2,place-rugg,2,Boston,,,,,,,,,,,,DOT_ADMIN,2020/05/21 10:32:42+00,DOT_ADMIN,2020/05/21 10:32:42+00
-71.0895009996959,42.336820999967,645372,door-rugg-upper,,Ruggles - Upper Busway,Ruggles - Upper Busway,,,42.336821,-71.089501,,,,level_1_ground,2,place-rugg,1,Boston,,,,,,,,,,,,DOT_ADMIN,2020/05/21 10:32:42+00,DOT_ADMIN,2020/05/21 10:32:42+00
-71.111925000317,42.3313910000305,645374,70255,70255,Riverway,Riverway - Green Line - (E) Heath Street,,Heath Street,42.331391,-71.111925,RapidTransit,,https://www.mbta.com/stops/place-rvrwy,level_in_street,0,place-rvrwy,2,Boston,,,0,,,,,,,,,DOT_ADMIN,2020/05/21 10:32:42+00,DOT_ADMIN,2020/05/21 10:32:42+00
-71.1119610000186,42.3318710004107,645375,70256,70256,Riverway,Riverway - Green Line - Park Street & North,,Park Street & North,42.331871,-71.111961,RapidTransit,,https://www.mbta.com/stops/place-rvrwy,level_in_street,0,place-rvrwy,2,Boston,,,0,,,,,,,,,DOT_ADMIN,2020/05/21 10:32:42+00,DOT_ADMIN,2020/05/21 10:32:42+00
-71.104248000045,42.3170619996724,645377,70004,70004,Stony Brook,Stony Brook - Orange Line - Forest Hills,,Forest Hills,42.317062,-71.104248,RapidTransit,,https://www.mbta.com/stops/place-sbmnl,level_-1_platform,0,place-sbmnl,1,Boston,,,1,,,,,,,,,DOT_ADMIN,2020/05/21 10:32:42+00,DOT_ADMIN,2020/05/21 10:32:42+00
-71.104248000045,42.3170619996724,645378,70005,70005,Stony Brook,Stony Brook - Orange Line - Oak Grove,,Oak Grove,42.317062,-71.104248,RapidTransit,,https://www.mbta.com/stops/place-sbmnl,level_-1_platform,0,place-sbmnl,1,Boston,,,1,,,,,,,,,DOT_ADMIN,2020/05/21 10:32:42+00,DOT_ADMIN,2020/05/21 10:32:42+00
-71.1042160002906,42.3170999999307,645379,door-sbmnl-main,,Stony Brook - Amory St,Stony Brook - Amory St,,,42.3171,-71.104216,,,,level_in_street,2,place-sbmnl,1,Boston,,,,,,,,,,,,DOT_ADMIN,2020/05/21 10:32:42+00,DOT_ADMIN,2020/05/21 10:32:42+00
-70.9971229995617,42.3905009999886,645381,70053,70053,Suffolk Downs,Suffolk Downs - Blue Line - Bowdoin,1,Bowdoin,42.390501,-70.997123,RapidTransit,,https://www.mbta.com/stops/place-sdmnl,level_0_platform,0,place-sdmnl,1,Boston,,,1,,,,,,,,,DOT_ADMIN,2020/05/21 10:32:42+00,DOT_ADMIN,2020/05/21 10:32:42+00
-70.9971229995617,42.3905009999886,645382,70054,70054,Suffolk Downs,Suffolk Downs - Blue Line - Wonderland,2,Wonderland,42.390501,-70.997123,RapidTransit,,https://www.mbta.com/stops/place-sdmnl,level_0_platform,0,place-sdmnl,1,Boston,,,1,,,,,,,,,DOT_ADMIN,2020/05/21 10:32:42+00,DOT_ADMIN,2020/05/21 10:32:42+00
-70.9969640005393,42.3903670002741,645383,door-sdmnl-benning,,Suffolk Downs - Bennington St,Suffolk Downs - Bennington St,,,42.390367,-70.996964,,,,level_in_street,2,place-sdmnl,1,Boston,,,,,,,,,,,,DOT_ADMIN,2020/05/21 10:32:42+00,DOT_ADMIN,2020/05/21 10:32:42+00
-70.9973880002092,42.3906399999975,645384,door-sdmnl-walley,,Suffolk Downs - Walley St,Suffolk Downs - Walley St,,,42.39064,-70.997388,,,,level_in_street,2,place-sdmnl,1,Boston,,,,,,,,,,,,DOT_ADMIN,2020/05/21 10:32:42+00,DOT_ADMIN,2020/05/21 10:32:42+00
-71.053330999941,42.3112900002428,645386,70087,70087,Savin Hill,Savin Hill - Red Line - Ashmont,,Ashmont,42.31129,-71.053331,RapidTransit,,https://www.mbta.com/stops/place-shmnl,level_0_platform,0,place-shmnl,1,Boston,,,1,,,,,,,,,DOT_ADMIN,2020/05/21 10:32:42+00,DOT_ADMIN,2020/05/21 10:32:42+00
-71.053330999941,42.3112900002428,645387,70088,70088,Savin Hill,Savin Hill - Red Line - Alewife,,Alewife,42.31129,-71.053331,RapidTransit,,https://www.mbta.com/stops/place-shmnl,level_0_platform,0,place-shmnl,1,Boston,,,1,,,,,,,,,DOT_ADMIN,2020/05/21 10:32:42+00,DOT_ADMIN,2020/05/21 10:32:42+00
-71.0533019996677,42.3112990003597,645388,door-shmnl-savin,,Savin Hill - Savin Hill Ave,Savin Hill - Savin Hill Ave,,,42.311299,-71.053302,,,,level_1_in_street,2,place-shmnl,1,Boston,,,,,,,,,,,,DOT_ADMIN,2020/05/21 10:32:42+00,DOT_ADMIN,2020/05/21 10:32:42+00
-71.0537009994283,42.3108560003386,645389,door-shmnl-sydney,,Savin Hill - South Sydney St,Savin Hill - South Sydney St,,,42.310856,-71.053701,,,,level_ground,2,place-shmnl,1,Boston,,,,,,,,,,,,DOT_ADMIN,2020/05/21 10:32:42+00,DOT_ADMIN,2020/05/21 10:32:42+00
-71.107696999908,42.3458839997537,645391,70211,70211,Saint Marys Street,Saint Marys Street - Green Line - (C) Cleveland Circle,,Cleveland Circle,42.345884,-71.107697,RapidTransit,,https://www.mbta.com/stops/place-smary,level_median,0,place-smary,1,Brookline,,,0,,,,,,,,,DOT_ADMIN,2020/05/21 10:32:42+00,DOT_ADMIN,2020/05/21 10:32:42+00
-71.1071659999194,42.3460069995595,645392,70212,70212,Saint Marys Street,Saint Marys Street - Green Line - Park Street & North,,Park Street & North,42.346007,-71.107166,RapidTransit,,https://www.mbta.com/stops/place-smary,level_median,0,place-smary,1,Brookline,,,0,,,,,,,,,DOT_ADMIN,2020/05/21 10:32:42+00,DOT_ADMIN,2020/05/21 10:32:42+00
-71.065738000565,42.2931260001261,645394,70091,70091,Shawmut,Shawmut - Red Line - Ashmont,,Ashmont,42.293126,-71.065738,RapidTransit,,https://www.mbta.com/stops/place-smmnl,level_-1_platform,0,place-smmnl,1,Boston,,,1,,,,,,,,,DOT_ADMIN,2020/05/21 10:32:42+00,DOT_ADMIN,2020/05/21 10:32:42+00
-71.065738000565,42.2931260001261,645395,70092,70092,Shawmut,Shawmut - Red Line - Alewife,,Alewife,42.293126,-71.065738,RapidTransit,,https://www.mbta.com/stops/place-smmnl,level_-1_platform,0,place-smmnl,1,Boston,,,1,,,,,,,,,DOT_ADMIN,2020/05/21 10:32:42+00,DOT_ADMIN,2020/05/21 10:32:42+00
-71.0657839999179,42.2930669997805,645396,door-smmnl-clemen,,"Shawmut - Clementine Park, Centre St","Shawmut - Clementine Park, Centre St",,,42.293067,-71.065784,,,,level_ground,2,place-smmnl,1,Boston,,,,,,,,,,,,DOT_ADMIN,2020/05/21 10:32:42+00,DOT_ADMIN,2020/05/21 10:32:42+00
-71.1570570000539,42.3393710003429,645398,70110,70110,South Street,South Street - Green Line - Park Street & North,,Park Street & North,42.339371,-71.157057,RapidTransit,,https://www.mbta.com/stops/place-sougr,level_median,0,place-sougr,2,Boston,,,0,,,,,,,,,DOT_ADMIN,2020/05/21 10:32:42+00,DOT_ADMIN,2020/05/21 10:32:42+00
-71.1574990001692,42.3395809996764,645399,70111,70111,South Street,South Street - Green Line - (B) Boston College,,Boston College,42.339581,-71.157499,RapidTransit,,https://www.mbta.com/stops/place-sougr,level_median,0,place-sougr,2,Boston,,,0,,,,,,,,,DOT_ADMIN,2020/05/21 10:32:42+00,DOT_ADMIN,2020/05/21 10:32:42+00
-71.0676660001735,42.3666639996954,645401,70207,70207,Science Park/West End,Science Park/West End - Green Line - Lechmere,,Lechmere,42.366664,-71.067666,RapidTransit,,https://www.mbta.com/stops/place-spmnl,level_2_platform,0,place-spmnl,1,Boston,,,0,,,,,,,,,DOT_ADMIN,2020/05/21 10:32:42+00,DOT_ADMIN,2020/05/21 10:32:42+00
-71.0676660001735,42.3666639996954,645402,70208,70208,Science Park/West End,Science Park/West End - Green Line - Copley & West,,Copley & West,42.366664,-71.067666,RapidTransit,,https://www.mbta.com/stops/place-spmnl,level_2_platform,0,place-spmnl,1,Boston,,,0,,,,,,,,,DOT_ADMIN,2020/05/21 10:32:42+00,DOT_ADMIN,2020/05/21 10:32:42+00
-71.06775700012,42.3668700000339,645403,door-spmnl-nashua,,"Science Park/West End - Nashua St, Spaulding Rehab Hospital (Stairs)","Science Park/West End - Nashua St, Spaulding Rehab Hospital (Stairs)",,,42.36687,-71.067757,,,,level_ground,2,place-spmnl,2,Boston,,,,,,,,,,,,DOT_ADMIN,2020/05/21 10:32:42+00,DOT_ADMIN,2020/05/21 10:32:42+00
-71.0677329995007,42.3668560003801,645404,door-spmnl-nashuael,,"Science Park/West End - Nashua St, Spaulding Rehab Hospital (Elevator)","Science Park/West End - Nashua St, Spaulding Rehab Hospital (Elevator)",,,42.366856,-71.067733,,,,level_ground,2,place-spmnl,1,Boston,,,,,,,,,,,,DOT_ADMIN,2020/05/21 10:32:42+00,DOT_ADMIN,2020/05/21 10:32:42+00
-71.0679980001933,42.366730000373,645405,door-spmnl-obrien,,"Science Park/West End - Monsignor O'Brien Hwy, Museum of Science (Stairs)","Science Park/West End - Monsignor O'Brien Hwy, Museum of Science (Stairs)",,,42.36673,-71.067998,,,,level_ground,2,place-spmnl,2,Boston,,,,,,,,,,,,DOT_ADMIN,2020/05/21 10:32:42+00,DOT_ADMIN,2020/05/21 10:32:42+00
-71.0679659994563,42.3666500002705,645406,door-spmnl-obrienel,,"Science Park/West End - Monsignor O'Brien Hwy, Museum of Science (Elevator)","Science Park/West End - Monsignor O'Brien Hwy, Museum of Science (Elevator)",,,42.36665,-71.067966,,,,level_ground,2,place-spmnl,1,Boston,,,,,,,,,,,,DOT_ADMIN,2020/05/21 10:32:42+00,DOT_ADMIN,2020/05/21 10:32:42+00
-71.0552419994473,42.3522710000191,645408,70079,70079,South Station,South Station - Red Line - Ashmont/Braintree,,Ashmont/Braintree,42.352271,-71.055242,RapidTransit,,https://www.mbta.com/stops/place-sstat,level_-3_red_platform,0,place-sstat,1,Boston,,,1,,,,,,,,,DOT_ADMIN,2020/05/21 10:32:42+00,DOT_ADMIN,2020/05/21 10:32:42+00
-71.0552419994473,42.3522710000191,645409,70080,70080,South Station,South Station - Red Line - Alewife,,Alewife,42.352271,-71.055242,RapidTransit,,https://www.mbta.com/stops/place-sstat,level_-3_red_platform,0,place-sstat,1,Boston,,,1,,,,,,,,,DOT_ADMIN,2020/05/21 10:32:42+00,DOT_ADMIN,2020/05/21 10:32:42+00
-71.0557159998282,42.3515509995805,645427,door-sstat-atlantic,,South Station - Atlantic Ave,South Station - Atlantic Ave,,,42.351551,-71.055716,,,,level_in_street,2,place-sstat,1,Boston,,,,,,,,,,,,DOT_ADMIN,2020/05/21 10:32:42+00,DOT_ADMIN,2020/05/21 10:32:42+00
-71.0561209995553,42.3506899997707,645428,door-sstat-bus,,South Station - South Station Bus Terminal,South Station - South Station Bus Terminal,,,42.35069,-71.056121,,,,level_ground,2,place-sstat,1,Boston,,,,,,,,,,,,DOT_ADMIN,2020/05/21 10:32:42+00,DOT_ADMIN,2020/05/21 10:32:42+00
-71.0555050000468,42.3528859999401,645429,door-sstat-dewey,,"South Station - Dewey Sq (Summer St, Atlantic Ave)","South Station - Dewey Sq (Summer St, Atlantic Ave)",,,42.352886,-71.055505,,,,level_in_street,2,place-sstat,1,Boston,,,,,,,,,,,,DOT_ADMIN,2020/05/21 10:32:42+00,DOT_ADMIN,2020/05/21 10:32:42+00
-71.0558239994938,42.3525439997723,645430,door-sstat-finctr,,South Station - Financial Center,South Station - Financial Center,,,42.352544,-71.055824,,,,level_in_street,2,place-sstat,2,Boston,,,,,,,,,,,,DOT_ADMIN,2020/05/21 10:32:42+00,DOT_ADMIN,2020/05/21 10:32:42+00
-71.0552299995257,42.3523020001839,645431,door-sstat-main,,"South Station - Main Entry, Dewey Square","South Station - Main Entry, Dewey Square",,,42.352302,-71.05523,,,,level_in_street,2,place-sstat,1,Boston,,,,,,,,,,,,DOT_ADMIN,2020/05/21 10:32:42+00,DOT_ADMIN,2020/05/21 10:32:42+00
-71.0550709997193,42.3523630002024,645432,door-sstat-outmain,,"South Station - Summer St, Atlantic Ave, Commuter Rail","South Station - Summer St, Atlantic Ave, Commuter Rail",,,42.352363,-71.055071,,,,level_in_street,2,place-sstat,2,Boston,,,,,,,,,,,,DOT_ADMIN,2020/05/21 10:32:42+00,DOT_ADMIN,2020/05/21 10:32:42+00
-71.0550130005474,42.3526770002579,645433,door-sstat-reserve,,"South Station - Atlantic Ave, Summer St","South Station - Atlantic Ave, Summer St",,,42.352677,-71.055013,,,,level_in_street,2,place-sstat,2,Boston,,,,,,,,,,,,DOT_ADMIN,2020/05/21 10:32:42+00,DOT_ADMIN,2020/05/21 10:32:42+00
-71.0544020001821,42.3517870001492,645434,door-sstat-summer,,South Station - Summer St,South Station - Summer St,,,42.351787,-71.054402,,,,level_in_street,2,place-sstat,1,Boston,,,,,,,,,,,,DOT_ADMIN,2020/05/21 10:32:42+00,DOT_ADMIN,2020/05/21 10:32:42+00
-71.0547289999766,42.3511079995584,645435,door-sstat-usps,,South Station - USPS Post Office,South Station - USPS Post Office,,,42.351108,-71.054729,,,,level_ground,2,place-sstat,1,Boston,,,,,,,,,,,,DOT_ADMIN,2020/05/21 10:32:42+00,DOT_ADMIN,2020/05/21 10:32:42+00
-71.0575980004968,42.3589780004551,645437,70022,70022,State,State - Orange Line - Forest Hills,,Forest Hills,42.358978,-71.057598,RapidTransit,,https://www.mbta.com/stops/place-state,level_-1_up_platform,0,place-state,1,Boston,,,1,,,,,,,,,DOT_ADMIN,2020/05/21 10:32:42+00,DOT_ADMIN,2020/05/21 10:32:42+00
-71.0575980004968,42.3589780004551,645438,70023,70023,State,State - Orange Line - Oak Grove,,Oak Grove,42.358978,-71.057598,RapidTransit,,https://www.mbta.com/stops/place-state,level_-2_oak_grove_platform,0,place-state,1,Boston,,,1,,,,,,,,,DOT_ADMIN,2020/05/21 10:32:42+00,DOT_ADMIN,2020/05/21 10:32:42+00
-71.0575980004968,42.3589780004551,645439,70041,70041,State,State - Blue Line - Bowdoin,,Bowdoin,42.358978,-71.057598,RapidTransit,,https://www.mbta.com/stops/place-state,level_-1_up_platform,0,place-state,1,Boston,,,1,,,,,,,,,DOT_ADMIN,2020/05/21 10:32:42+00,DOT_ADMIN,2020/05/21 10:32:42+00
-71.0575980004968,42.3589780004551,645440,70042,70042,State,State - Blue Line - Wonderland,,Wonderland,42.358978,-71.057598,RapidTransit,,https://www.mbta.com/stops/place-state,level_-1_up_platform,0,place-state,1,Boston,,,1,,,,,,,,,DOT_ADMIN,2020/05/21 10:32:42+00,DOT_ADMIN,2020/05/21 10:32:42+00
-71.0576150001532,42.3594350002856,645441,door-state-cityhall,,State - City Hall,State - City Hall,,,42.359435,-71.057615,,,,level_in_street,2,place-state,2,Boston,,,,,,,,,,,,DOT_ADMIN,2020/05/21 10:32:42+00,DOT_ADMIN,2020/05/21 10:32:42+00
-71.0566990004863,42.3591150002914,645442,door-state-congress,,State - Congress St (North),State - Congress St (North),,,42.359115,-71.056699,,,,level_in_street,2,place-state,1,Boston,,,,,,,,,,,,DOT_ADMIN,2020/05/21 10:32:42+00,DOT_ADMIN,2020/05/21 10:32:42+00
-71.056498999842,42.3584129998707,645443,door-state-exchange,,State - Congress St (Exchange Place),State - Congress St (Exchange Place),,,42.358413,-71.056499,,,,level_in_street,2,place-state,1,Boston,,,,,,,,,,,,DOT_ADMIN,2020/05/21 10:32:42+00,DOT_ADMIN,2020/05/21 10:32:42+00
-71.0583940000075,42.3571500003946,645444,door-state-meeting,,"State - Washington St, Milk St","State - Washington St, Milk St",,,42.35715,-71.058394,,,,level_in_street,2,place-state,1,Boston,,,,,,,,,,,,DOT_ADMIN,2020/05/21 10:32:42+00,DOT_ADMIN,2020/05/21 10:32:42+00
-71.0572979994385,42.3587350000261,645445,door-state-state,,"State - Old State House, State St","State - Old State House, State St",,,42.358735,-71.057298,,,,level_in_street,2,place-state,2,Boston,,,,,,,,,,,,DOT_ADMIN,2020/05/21 10:32:42+00,DOT_ADMIN,2020/05/21 10:32:42+00
-71.0574120001975,42.3574869999735,645446,door-state-water,,"State - Devonshire St, Water St","State - Devonshire St, Water St",,,42.357487,-71.057412,,,,level_in_street,2,place-state,2,Boston,,,,,,,,,,,,DOT_ADMIN,2020/05/21 10:32:42+00,DOT_ADMIN,2020/05/21 10:32:42+00
-71.1460889995818,42.3415889995668,645448,70116,70116,Sutherland Road,Sutherland Road - Green Line - Park Street & North,,Park Street & North,42.341589,-71.146089,RapidTransit,,https://www.mbta.com/stops/place-sthld,level_median,0,place-sthld,2,Boston,,,0,,,,,,,,,DOT_ADMIN,2020/05/21 10:32:42+00,DOT_ADMIN,2020/05/21 10:32:42+00
-71.1466070005311,42.3415770003035,645449,70117,70117,Sutherland Road,Sutherland Road - Green Line - (B) Boston College,,Boston College,42.341577,-71.146607,RapidTransit,,https://www.mbta.com/stops/place-sthld,level_median,0,place-sthld,2,Boston,,,0,,,,,,,,,DOT_ADMIN,2020/05/21 10:32:42+00,DOT_ADMIN,2020/05/21 10:32:42+00
-71.1160140003665,42.3511100002346,645451,70140,70140,Saint Paul Street,Saint Paul Street - Green Line - Park Street & North,,Park Street & North,42.35111,-71.116014,RapidTransit,,https://www.mbta.com/stops/place-stplb,level_median,0,place-stplb,2,Boston,,,0,,,,,,,,,DOT_ADMIN,2020/05/21 10:32:42+00,DOT_ADMIN,2020/05/21 10:32:42+00
-71.1165310005757,42.3512409997854,645452,70141,70141,Saint Paul Street,Saint Paul Street - Green Line - (B) Boston College,,Boston College,42.351241,-71.116531,RapidTransit,,https://www.mbta.com/stops/place-stplb,level_median,0,place-stplb,2,Boston,,,0,,,,,,,,,DOT_ADMIN,2020/05/21 10:32:42+00,DOT_ADMIN,2020/05/21 10:32:42+00
-71.1169269997798,42.343340000428,645454,70217,70217,Saint Paul Street,Saint Paul Street - Green Line - (C) Cleveland Circle,,Cleveland Circle,42.34334,-71.116927,RapidTransit,,https://www.mbta.com/stops/place-stpul,level_median,0,place-stpul,2,Brookline,,,0,,,,,,,,,DOT_ADMIN,2020/05/21 10:32:42+00,DOT_ADMIN,2020/05/21 10:32:42+00
-71.1174980005023,42.3431179999815,645455,70218,70218,Saint Paul Street,Saint Paul Street - Green Line - Park Street & North,,Park Street & North,42.343118,-71.117498,RapidTransit,,https://www.mbta.com/stops/place-stpul,level_median,0,place-stpul,2,Brookline,,,0,,,,,,,,,DOT_ADMIN,2020/05/21 10:32:42+00,DOT_ADMIN,2020/05/21 10:32:42+00
-71.0769940000674,42.383975000122,645471,70030,70030,Sullivan Square,Sullivan Square - Orange Line - Forest Hills,1,Forest Hills,42.383975,-71.076994,RapidTransit,,https://www.mbta.com/stops/place-sull,level_-1_platform,0,place-sull,1,Boston,,,1,,,,,,,,,DOT_ADMIN,2020/05/21 10:32:42+00,DOT_ADMIN,2020/05/21 10:32:42+00
-71.0769940000674,42.383975000122,645472,70031,70031,Sullivan Square,Sullivan Square - Orange Line - Oak Grove,2,Oak Grove,42.383975,-71.076994,RapidTransit,,https://www.mbta.com/stops/place-sull,level_-1_platform,0,place-sull,1,Boston,,,1,,,,,,,,,DOT_ADMIN,2020/05/21 10:32:42+00,DOT_ADMIN,2020/05/21 10:32:42+00
-71.0766350004724,42.3843089996549,645473,door-sull-main,,"Sullivan Square - Buses, Parking, Street","Sullivan Square - Buses, Parking, Street",,,42.384309,-71.076635,,,,level_ground,2,place-sull,1,Boston,,,,,,,,,,,,DOT_ADMIN,2020/05/21 10:32:42+00,DOT_ADMIN,2020/05/21 10:32:42+00
-71.1256519998382,42.3411199996291,645475,70223,70223,Summit Avenue,Summit Avenue - Green Line - (C) Cleveland Circle,,Cleveland Circle,42.34112,-71.125652,RapidTransit,,https://www.mbta.com/stops/place-sumav,level_median,0,place-sumav,2,Brookline,,,0,,,,,,,,,DOT_ADMIN,2020/05/21 10:32:42+00,DOT_ADMIN,2020/05/21 10:32:42+00
-71.1257589994558,42.3410270004043,645476,70224,70224,Summit Avenue,Summit Avenue - Green Line - Park Street & North,,Park Street & North,42.341027,-71.125759,RapidTransit,,https://www.mbta.com/stops/place-sumav,level_median,0,place-sumav,2,Brookline,,,0,,,,,,,,,DOT_ADMIN,2020/05/21 10:32:42+00,DOT_ADMIN,2020/05/21 10:32:42+00
-71.0850560002113,42.3426869996386,645478,70241,70241,Symphony,Symphony - Green Line - (E) Heath Street,,Heath Street,42.342687,-71.085056,RapidTransit,,https://www.mbta.com/stops/place-symcl,level_-1_platform,0,place-symcl,2,Boston,,,0,,,,,,,,,DOT_ADMIN,2020/05/21 10:32:42+00,DOT_ADMIN,2020/05/21 10:32:42+00
-71.0850560002113,42.3426869996386,645479,70242,70242,Symphony,Symphony - Green Line - Park Street & North,,Park Street & North,42.342687,-71.085056,RapidTransit,,https://www.mbta.com/stops/place-symcl,level_-1_platform,0,place-symcl,2,Boston,,,0,,,,,,,,,DOT_ADMIN,2020/05/21 10:32:42+00,DOT_ADMIN,2020/05/21 10:32:42+00
-71.0845110005978,42.3427639997454,645480,door-symcl-ebchurch,,"Symphony - Massachusetts Ave, First Church of Christ","Symphony - Massachusetts Ave, First Church of Christ",,,42.342764,-71.084511,,,,level_in_street,2,place-symcl,2,Boston,,,,,,,,,,,,DOT_ADMIN,2020/05/21 10:32:42+00,DOT_ADMIN,2020/05/21 10:32:42+00
-71.0848619996093,42.3424570002304,645481,door-symcl-ebsymphony,,"Symphony - Massachusetts Ave, Symphony Hall","Symphony - Massachusetts Ave, Symphony Hall",,,42.342457,-71.084862,,,,level_in_street,2,place-symcl,2,Boston,,,,,,,,,,,,DOT_ADMIN,2020/05/21 10:32:42+00,DOT_ADMIN,2020/05/21 10:32:42+00
-71.0851949997466,42.3430749996783,645482,door-symcl-falmouth,,"Symphony - First Church, Falmouth St","Symphony - First Church, Falmouth St",,,42.343075,-71.085195,,,,level_in_street,2,place-symcl,2,Boston,,,,,,,,,,,,DOT_ADMIN,2020/05/21 10:32:42+00,DOT_ADMIN,2020/05/21 10:32:42+00
-71.0850210005822,42.3429569997835,645483,door-symcl-hunte,,"Symphony - Massachusetts Ave, Huntington Ave (East)","Symphony - Massachusetts Ave, Huntington Ave (East)",,,42.342957,-71.085021,,,,level_in_street,2,place-symcl,2,Boston,,,,,,,,,,,,DOT_ADMIN,2020/05/21 10:32:42+00,DOT_ADMIN,2020/05/21 10:32:42+00
-71.0851849994098,42.3428220003241,645484,door-symcl-huntw,,"Symphony - Massachusetts Ave, Huntington Ave (West)","Symphony - Massachusetts Ave, Huntington Ave (West)",,,42.342822,-71.085185,,,,level_in_street,2,place-symcl,2,Boston,,,,,,,,,,,,DOT_ADMIN,2020/05/21 10:32:42+00,DOT_ADMIN,2020/05/21 10:32:42+00
-71.0853600004404,42.3429410002112,645485,door-symcl-westland,,"Symphony - Westland Ave, Symphony Hall","Symphony - Westland Ave, Symphony Hall",,,42.342941,-71.08536,,,,level_in_street,2,place-symcl,2,Boston,,,,,,,,,,,,DOT_ADMIN,2020/05/21 10:32:42+00,DOT_ADMIN,2020/05/21 10:32:42+00
-71.1387310004155,42.3384979999961,645487,70231,70231,Tappan Street,Tappan Street - Green Line - (C) Cleveland Circle,,Cleveland Circle,42.338498,-71.138731,RapidTransit,,https://www.mbta.com/stops/place-tapst,level_median,0,place-tapst,2,Brookline,,,0,,,,,,,,,DOT_ADMIN,2020/05/21 10:32:42+00,DOT_ADMIN,2020/05/21 10:32:42+00
-71.138189999907,42.3385670003769,645488,70232,70232,Tappan Street,Tappan Street - Green Line - Park Street & North,,Park Street & North,42.338567,-71.13819,RapidTransit,,https://www.mbta.com/stops/place-tapst,level_median,0,place-tapst,2,Brookline,,,0,,,,,,,,,DOT_ADMIN,2020/05/21 10:32:42+00,DOT_ADMIN,2020/05/21 10:32:42+00
-71.0639170004322,42.3496619998964,645490,70016,70016,Tufts Medical Center,Tufts Medical Center - Orange Line - Forest Hills,,Forest Hills,42.349662,-71.063917,RapidTransit,,https://www.mbta.com/stops/place-tumnl,level_-2_platform,0,place-tumnl,1,Boston,,,1,,,,,,,,,DOT_ADMIN,2020/05/21 10:32:42+00,DOT_ADMIN,2020/05/21 10:32:42+00
-71.0639170004322,42.3496619998964,645491,70017,70017,Tufts Medical Center,Tufts Medical Center - Orange Line - Oak Grove,,Oak Grove,42.349662,-71.063917,RapidTransit,,https://www.mbta.com/stops/place-tumnl,level_-2_platform,0,place-tumnl,1,Boston,,,1,,,,,,,,,DOT_ADMIN,2020/05/21 10:32:42+00,DOT_ADMIN,2020/05/21 10:32:42+00
-71.0653100002867,42.348689999742,645492,door-tumnl-tremont,,"Tufts Medical Center - Tremont St, YMCA Wang","Tufts Medical Center - Tremont St, YMCA Wang",,,42.34869,-71.06531,,,,level_in_street,2,place-tumnl,2,Boston,,,,,,,,,,,,DOT_ADMIN,2020/05/21 10:32:42+00,DOT_ADMIN,2020/05/21 10:32:42+00
-71.0639170004322,42.3496619998964,645493,door-tumnl-washington,,"Tufts Medical Center - Washington St, Tufts Medical Center","Tufts Medical Center - Washington St, Tufts Medical Center",,,42.349662,-71.063917,,,,level_in_street,2,place-tumnl,1,Boston,,,,,,,,,,,,DOT_ADMIN,2020/05/21 10:32:42+00,DOT_ADMIN,2020/05/21 10:32:42+00
-71.0815679997786,42.2683219999716,645495,70271,70271,Valley Road,Valley Road - Mattapan Trolley - Mattapan,,Mattapan,42.268322,-71.081568,RapidTransit,,https://www.mbta.com/stops/place-valrd,level_ground,0,place-valrd,2,Milton,,,0,,,,,,,,,DOT_ADMIN,2020/05/21 10:32:42+00,DOT_ADMIN,2020/05/21 10:32:42+00
-71.0815439994308,42.2682769998288,645496,70272,70272,Valley Road,Valley Road - Mattapan Trolley - Ashmont,,Ashmont,42.268277,-71.081544,RapidTransit,,https://www.mbta.com/stops/place-valrd,level_ground,0,place-valrd,2,Milton,,,0,,,,,,,,,DOT_ADMIN,2020/05/21 10:32:42+00,DOT_ADMIN,2020/05/21 10:32:42+00
-71.0811249998518,42.2679319999377,645497,door-valrd-eliot,,Valley Road - Eliot St,Valley Road - Eliot St,,,42.267932,-71.081125,,,,level_1_in_street,2,place-valrd,2,Milton,,,,,,,,,,,,DOT_ADMIN,2020/05/21 10:32:42+00,DOT_ADMIN,2020/05/21 10:32:42+00
-71.2308049995,42.3258989998789,645499,70164,70164,Waban,Waban - Green Line - Park Street & North,,Park Street & North,42.325899,-71.230805,RapidTransit,,https://www.mbta.com/stops/place-waban,level_ground,0,place-waban,2,Newton,,,0,,,,,,,,,DOT_ADMIN,2020/05/21 10:32:42+00,DOT_ADMIN,2020/05/21 10:32:42+00
-71.2307299999282,42.3259429996235,645500,70165,70165,Waban,Waban - Green Line - (D) Riverside,,Riverside,42.325943,-71.23073,RapidTransit,,https://www.mbta.com/stops/place-waban,level_ground,0,place-waban,2,Newton,,,0,,,,,,,,,DOT_ADMIN,2020/05/21 10:32:42+00,DOT_ADMIN,2020/05/21 10:32:42+00
-71.2309229996933,42.3262980000077,645501,door-waban-beacon,,Waban - Beacon St (Stairs),Waban - Beacon St (Stairs),,,42.326298,-71.230923,,,,level_beacon_st,2,place-waban,2,Newton,,,,,,,,,,,,DOT_ADMIN,2020/05/21 10:32:42+00,DOT_ADMIN,2020/05/21 10:32:42+00
-71.2302879994171,42.3257479995643,645502,door-waban-parkr,,Waban - Parking (Ramp),Waban - Parking (Ramp),,,42.325748,-71.230288,,,,level_ground,2,place-waban,1,Newton,,,,,,,,,,,,DOT_ADMIN,2020/05/21 10:32:42+00,DOT_ADMIN,2020/05/21 10:32:42+00
-71.2307349996131,42.3260340000036,645503,door-waban-parks,,Waban - Parking (Stairs),Waban - Parking (Stairs),,,42.326034,-71.230735,,,,level_ground,2,place-waban,2,Newton,,,,,,,,,,,,DOT_ADMIN,2020/05/21 10:32:42+00,DOT_ADMIN,2020/05/21 10:32:42+00
-71.2305600002827,42.3263549996093,645504,door-waban-wyman,,Waban - Wyman St West,Waban - Wyman St West,,,42.326355,-71.23056,,,,level_in_street,2,place-waban,1,Newton,,,,,,,,,,,,DOT_ADMIN,2020/05/21 10:32:42+00,DOT_ADMIN,2020/05/21 10:32:42+00
-71.1423850005817,42.3443290003392,645506,70120,70120,Washington Street,Washington Street - Green Line - Park Street & North,,Park Street & North,42.344329,-71.142385,RapidTransit,,https://www.mbta.com/stops/place-wascm,level_median,0,place-wascm,1,Boston,,,0,,,,,,,,,DOT_ADMIN,2020/05/21 10:32:42+00,DOT_ADMIN,2020/05/21 10:32:42+00
-71.1427309998325,42.3439739997604,645507,70121,70121,Washington Street,Washington Street - Green Line - (B) Boston College,,Boston College,42.343974,-71.142731,RapidTransit,,https://www.mbta.com/stops/place-wascm,level_median,0,place-wascm,1,Boston,,,0,,,,,,,,,DOT_ADMIN,2020/05/21 10:32:42+00,DOT_ADMIN,2020/05/21 10:32:42+00
-71.0770820003434,42.4023699998123,645510,70032,70032,Wellington,Wellington - Orange Line - Forest Hills,1,Forest Hills,42.40237,-71.077082,RapidTransit,,https://www.mbta.com/stops/place-welln,level_-0.5_platform,0,place-welln,1,Medford,,,1,,,,,,,,,DOT_ADMIN,2020/05/21 10:32:42+00,DOT_ADMIN,2020/05/21 10:32:42+00
-71.0770820003434,42.4023699998123,645511,70033,70033,Wellington,Wellington - Orange Line - Oak Grove,2,Oak Grove,42.40237,-71.077082,RapidTransit,,https://www.mbta.com/stops/place-welln,level_-0.5_platform,0,place-welln,1,Medford,,,1,,,,,,,,,DOT_ADMIN,2020/05/21 10:32:42+00,DOT_ADMIN,2020/05/21 10:32:42+00
-71.0765760003228,42.4024460000521,645512,door-welln-busway,,"Wellington - Buses, Parking Lot","Wellington - Buses, Parking Lot",,,42.402446,-71.076576,,,,level_ground,2,place-welln,1,Medford,,,,,,,,,,,,DOT_ADMIN,2020/05/21 10:32:42+00,DOT_ADMIN,2020/05/21 10:32:42+00
-71.0800920002213,42.4024609996921,645513,door-welln-garage,,"Wellington - Station Landing, Garage","Wellington - Station Landing, Garage",,,42.402461,-71.080092,,,,level_ground,2,place-welln,1,Medford,,,,,,,,,,,,DOT_ADMIN,2020/05/21 10:32:42+00,DOT_ADMIN,2020/05/21 10:32:42+00
-71.0228649994217,42.3796399998524,645516,70049,70049,Wood Island,Wood Island - Blue Line - Bowdoin,1,Bowdoin,42.37964,-71.022865,RapidTransit,,https://www.mbta.com/stops/place-wimnl,level_0_platform,0,place-wimnl,1,Boston,,,1,,,,,,,,,DOT_ADMIN,2020/05/21 10:32:42+00,DOT_ADMIN,2020/05/21 10:32:42+00
-71.0228649994217,42.3796399998524,645517,70050,70050,Wood Island,Wood Island - Blue Line - Wonderland,2,Wonderland,42.37964,-71.022865,RapidTransit,,https://www.mbta.com/stops/place-wimnl,level_0_platform,0,place-wimnl,1,Boston,,,1,,,,,,,,,DOT_ADMIN,2020/05/21 10:32:42+00,DOT_ADMIN,2020/05/21 10:32:42+00
-71.0230519998822,42.3798539995838,645518,door-wimnl-benning,,Wood Island - Bennington St,Wood Island - Bennington St,,,42.379854,-71.023052,,,,level_ground,2,place-wimnl,1,Boston,,,,,,,,,,,,DOT_ADMIN,2020/05/21 10:32:42+00,DOT_ADMIN,2020/05/21 10:32:42+00
-71.0230829995011,42.3794460003143,645519,door-wimnl-lovell,,Wood Island - Lovell St,Wood Island - Lovell St,,,42.379446,-71.023083,,,,level_in_street,2,place-wimnl,1,Boston,,,,,,,,,,,,DOT_ADMIN,2020/05/21 10:32:42+00,DOT_ADMIN,2020/05/21 10:32:42+00
-71.0203370003033,42.2665140002786,645521,70099,70099,Wollaston,Wollaston - Red Line - Braintree,,Braintree,42.266514,-71.020337,RapidTransit,,https://www.mbta.com/stops/place-wlsta,level_1_platform,0,place-wlsta,1,Quincy,,,1,,,,,,,,,DOT_ADMIN,2020/05/21 10:32:42+00,DOT_ADMIN,2020/05/21 10:32:42+00
-71.0203370003033,42.2665140002786,645522,70100,70100,Wollaston,Wollaston - Red Line - Alewife,,Alewife,42.266514,-71.020337,RapidTransit,,https://www.mbta.com/stops/place-wlsta,level_1_platform,0,place-wlsta,1,Quincy,,,1,,,,,,,,,DOT_ADMIN,2020/05/21 10:32:42+00,DOT_ADMIN,2020/05/21 10:32:42+00
-71.0199479995983,42.2666389998385,645523,door-wlsta-beale,,"Wollaston - Beale Street, drop-off/pick-up","Wollaston - Beale Street, drop-off/pick-up",,,42.266639,-71.019948,,,,level_ground,2,place-wlsta,1,Quincy,,,,,,,,,,,,DOT_ADMIN,2020/05/21 10:32:42+00,DOT_ADMIN,2020/05/21 10:32:42+00
-71.0205229994918,42.2665539999465,645524,door-wlsta-newpnorth,,Wollaston - Newport Ave (Stairs),Wollaston - Newport Ave (Stairs),,,42.266554,-71.020523,,,,level_ground,2,place-wlsta,2,Quincy,,,,,,,,,,,,DOT_ADMIN,2020/05/21 10:32:42+00,DOT_ADMIN,2020/05/21 10:32:42+00
-71.0203030001367,42.2665509996577,645525,door-wlsta-newpsouth,,Wollaston - Newport Ave (Ramp),Wollaston - Newport Ave (Ramp),,,42.266551,-71.020303,,,,level_ground,2,place-wlsta,1,Quincy,,,,,,,,,,,,DOT_ADMIN,2020/05/21 10:32:42+00,DOT_ADMIN,2020/05/21 10:32:42+00
-71.0201040001202,42.2667830001582,645526,door-wlsta-parking,,"Wollaston - Parking, drop-off/pick-up","Wollaston - Parking, drop-off/pick-up",,,42.266783,-71.020104,,,,level_ground,2,place-wlsta,1,Quincy,,,,,,,,,,,,DOT_ADMIN,2020/05/21 10:32:42+00,DOT_ADMIN,2020/05/21 10:32:42+00
-70.9917369995256,42.4135129995682,645529,70059,70059,Wonderland,Wonderland - Blue Line - Bowdoin,1,Bowdoin,42.413513,-70.991737,RapidTransit,,https://www.mbta.com/stops/place-wondl,level_0_platform,0,place-wondl,1,Revere,,,1,,,,,,,,,DOT_ADMIN,2020/05/21 10:32:42+00,DOT_ADMIN,2020/05/21 10:32:42+00
-70.9916130001879,42.4134949999844,645530,70060,70060,Wonderland,Wonderland - Blue Line - Exit Only,2,Exit Only,42.413495,-70.991613,RapidTransit,,https://www.mbta.com/stops/place-wondl,level_0_platform,0,place-wondl,1,Revere,,,1,,,,,,,,,DOT_ADMIN,2020/05/21 10:32:42+00,DOT_ADMIN,2020/05/21 10:32:42+00
-70.9919040001702,42.4136500001154,645531,door-wondl-nshore,,Wonderland - 1300 North Shore Rd,Wonderland - 1300 North Shore Rd,,,42.41365,-70.991904,,,,level_in_street,2,place-wondl,1,Revere,,,,,,,,,,,,DOT_ADMIN,2020/05/21 10:32:42+00,DOT_ADMIN,2020/05/21 10:32:42+00
-70.9915499996354,42.4132950001718,645532,door-wondl-ocean,,Wonderland - Ocean Ave,Wonderland - Ocean Ave,,,42.413295,-70.99155,,,,level_ground,2,place-wondl,1,Revere,,,,,,,,,,,,DOT_ADMIN,2020/05/21 10:32:42+00,DOT_ADMIN,2020/05/21 10:32:42+00
-70.9904940001868,42.4133719999762,645533,door-wondl-oceann,,Wonderland - Ocean Ave North,Wonderland - Ocean Ave North,,,42.413372,-70.990494,,,,level_in_street,2,place-wondl,2,Revere,,,,,,,,,,,,DOT_ADMIN,2020/05/21 10:32:42+00,DOT_ADMIN,2020/05/21 10:32:42+00
-70.9905580000466,42.4135369999845,645534,door-wondl-oceannele,,Wonderland - Ocean Ave North Elevator,Wonderland - Ocean Ave North Elevator,,,42.413537,-70.990558,,,,level_in_street,2,place-wondl,1,Revere,,,,,,,,,,,,DOT_ADMIN,2020/05/21 10:32:42+00,DOT_ADMIN,2020/05/21 10:32:42+00
-70.989769999838,42.4132900002049,645535,door-wondl-revere,,Wonderland - Revere Beach,Wonderland - Revere Beach,,,42.41329,-70.98977,,,,level_in_street,2,place-wondl,1,Revere,,,,,,,,,,,,DOT_ADMIN,2020/05/21 10:32:42+00,DOT_ADMIN,2020/05/21 10:32:42+00
-71.2443330000115,42.3333389996914,645537,70162,70162,Woodland,Woodland - Green Line - Park Street & North,,Park Street & North,42.333339,-71.244333,RapidTransit,,https://www.mbta.com/stops/place-woodl,level_ground,0,place-woodl,1,Newton,,,0,,,,,,,,,DOT_ADMIN,2020/05/21 10:32:42+00,DOT_ADMIN,2020/05/21 10:32:42+00
-71.2443030003501,42.3333719996381,645538,70163,70163,Woodland,Woodland - Green Line - (D) Riverside,,Riverside,42.333372,-71.244303,RapidTransit,,https://www.mbta.com/stops/place-woodl,level_ground,0,place-woodl,1,Newton,,,0,,,,,,,,,DOT_ADMIN,2020/05/21 10:32:42+00,DOT_ADMIN,2020/05/21 10:32:42+00
-71.2429079998059,42.3327289998267,645539,door-woodl-east,,Woodland - East,Woodland - East,,,42.332729,-71.242908,,,,level_in_street,2,place-woodl,1,Newton,,,,,,,,,,,,DOT_ADMIN,2020/05/21 10:32:42+00,DOT_ADMIN,2020/05/21 10:32:42+00
-71.2437200006062,42.3331360000292,645540,door-woodl-main,,Woodland - Main,Woodland - Main,,,42.333136,-71.24372,,,,level_in_street,2,place-woodl,1,Newton,,,,,,,,,,,,DOT_ADMIN,2020/05/21 10:32:42+00,DOT_ADMIN,2020/05/21 10:32:42+00
-71.1404360005816,42.3482850000377,645542,70124,70124,Warren Street,Warren Street - Green Line - Park Street & North,,Park Street & North,42.348285,-71.140436,RapidTransit,,https://www.mbta.com/stops/place-wrnst,level_median,0,place-wrnst,2,Boston,,,0,,,,,,,,,DOT_ADMIN,2020/05/21 10:32:42+00,DOT_ADMIN,2020/05/21 10:32:42+00
-71.1400510005927,42.3488190000514,645543,70125,70125,Warren Street,Warren Street - Green Line - (B) Boston College,,Boston College,42.348819,-71.140051,RapidTransit,,https://www.mbta.com/stops/place-wrnst,level_median,0,place-wrnst,2,Boston,,,0,,,,,,,,,DOT_ADMIN,2020/05/21 10:32:42+00,DOT_ADMIN,2020/05/21 10:32:42+00
-71.0423679994217,42.3487019998437,645547,door-wtcst-congress,,World Trade Center - Congress St,World Trade Center - Congress St,,,42.348702,-71.042368,,,,level_congress_st,2,place-wtcst,1,Boston,,,,,,,,,,,,DOT_ADMIN,2020/05/21 10:32:42+00,DOT_ADMIN,2020/05/21 10:32:42+00
-71.0425090000972,42.3484840002262,645548,door-wtcst-wtc,,World Trade Center - World Trade Center Ave,World Trade Center - World Trade Center Ave,,,42.348484,-71.042509,,,,level_wtc_ave,2,place-wtcst,1,Boston,,,,,,,,,,,,DOT_ADMIN,2020/05/21 10:32:42+00,DOT_ADMIN,2020/05/21 10:32:42+00
